[{"uid": 264283, "lat": 55.86077, "lng": -4.264535, "bike": false, "name": "Waterloo Street - ELECTRIC", "address": null, "spot": true, "number": 8402, "booked_bikes": 0, "bikes": 8, "bikes_available_to_rent": 8, "bike_racks": 4, "free_racks": 4, "special_racks": 0, "free_special_racks": 4, "maintenance": true, "terminal_type": "smart_sign", "bike_list": [{"number": "47345", "bike_type": 15, "lock_types": ["fork_lock"], "active": true, "state": "ok", "electric_lock": true, "boardcomputer": 21926, "pedelec_battery": null, "battery_pack": null}, {"number": "825551", "bike_type": 143, "lock_types": ["frame_lock"], "active": true, "state": "ok", "electric_lock": true, "boardcomputer": 7551114424, "pedelec_battery": null, "battery_pack": null}, {"number": "46870", "bike_type": 150, "lock_types": ["frame_lock"], "active": true, "state": "ok", "electric_lock": true, "boardcomputer": 7551070769, "pedelec_battery": null, "battery_pack": null}, {"number": "46828", "bike_type": 150, "lock_types": ["frame_lock"], "active": true, "state": "ok", "electric_lock": true, "boardcomputer": 7551087879, "pedelec_battery": null, "battery_pack": null}, {"number": "46542", "bike_type": 150, "lock_types": ["frame_lock"], "active": true, "state": "ok", "electric_lock": true, "boardcomputer": 7551093448, "pedelec_battery": null, "battery_pack": null}, {"number": "46510", "bike_type": 150, "lock_types": ["frame_lock"], "active": true, "state": "ok", "electric_lock": true, "boardcomputer": 7551132419, "pedelec_battery": null, "battery_pack": null}, {"number": "46480", "bike_type": 150, "lock_types": ["frame_lock"], "active": true, "state": "ok", "electric_lock": true, "boardcomputer": 7551126499, "pedelec_battery": null, "battery_pack": null}, {"number": "829011", "bike_type": 15, "lock_types": ["fork_lock"], "active": true, "state": "ok", "electric_lock": true, "boardcomputer": 37319, "pedelec_battery": null, "battery_pack": null}], "bike_numbers": ["47345", "825551", "46870", "46828", "46542", "46510", "46480", "829011"], "bike_types": {"15": 2, "143": 1, "150": 5}, "place_type": "14", "rack_locks": true}, {"uid": 264292, "lat": 55.86155, "lng": -4.2494, "bike": false, "name": "George Square - ELECTRIC", "address": null, "spot": true, "number": 8406, "booked_bikes": 0, "bikes": 29, "bikes_available_to_rent": 29, "bike_racks": 10, "free_racks": 4, "special_racks": 0, "free_special_racks": 4, "maintenance": false, "terminal_type": "smart_sign", "bike_list": [{"number": "47470", "bike_type": 15, "lock_types": ["fork_lock"], "active": true, "state": "ok", "electric_lock": true, "boardcomputer": 23290, "pedelec_battery": null, "battery_pack": null}, {"number": "47376", "bike_type": 15, "lock_types": ["fork_lock"], "active": true, "state": "ok", "electric_lock": true, "boardcomputer": 21713, "pedelec_battery": null, "battery_pack": null}, {"number": "47180", "bike_type": 15, "lock_types": ["fork_lock"], "active": true, "state": "ok", "electric_lock": true, "boardcomputer": 29886, "pedelec_battery": null, "battery_pack": null}, {"number": "81100", "bike_type": 15, "lock_types": ["fork_lock"], "active": true, "state": "ok", "electric_lock": true, "boardcomputer": 28276, "pedelec_battery": null, "battery_pack": null}, {"number": "47592", "bike_type": 15, "lock_types": ["fork_lock"], "active": true, "state": "ok", "electric_lock": true, "boardcomputer": 30345, "pedelec_battery": null, "battery_pack": null}, {"number": "46986", "bike_type": 150, "lock_types": ["frame_lock"], "active": true, "state": "ok", "electric_lock": true, "boardcomputer": 7551116094, "pedelec_battery": null, "battery_pack": null}, {"number": "46976", "bike_type": 150, "lock_types": ["frame_lock"], "active": true, "state": "ok", "electric_lock": true, "boardcomputer": 7551070271, "pedelec_battery": null, "battery_pack": null}, {"number": "46974", "bike_type": 150, "lock_types": ["frame_lock"], "active": true, "state": "ok", "electric_lock": true, "boardcomputer": 7551114184, "pedelec_battery": null, "battery_pack": null}, {"number": "46973", "bike_type": 150, "lock_types": ["frame_lock"], "active": true, "state": "ok", "electric_lock": true, "boardcomputer": 7551133926, "pedelec_battery": null, "battery_pack": null}, {"number": "46940", "bike_type": 150, "lock_types": ["frame_lock"], "active": true, "state": "ok", "electric_lock": true, "boardcomputer": 7551125495, "pedelec_battery": null, "battery_pack": null}, {"number": "46864", "bike_type": 150, "lock_types": ["frame_lock"], "active": true, "state": "ok", "electric_lock": true, "boardcomputer": 7551068750, "pedelec_battery": null, "battery_pack": null}, {"number": "46858", "bike_type": 150, "lock_types": ["frame_lock"], "active": true, "state": "ok", "electric_lock": true, "boardcomputer": 7551135588, "pedelec_battery": null, "battery_pack": null}, {"number": "46848", "bike_type": 150, "lock_types": ["frame_lock"], "active": true, "state": "ok", "electric_lock": true, "boardcomputer": 7551089204, "pedelec_battery": null, "battery_pack": null}, {"number": "46830", "bike_type": 150, "lock_types": ["frame_lock"], "active": true, "state": "ok", "electric_lock": true, "boardcomputer": 7551127118, "pedelec_battery": null, "battery_pack": null}, {"number": "46702", "bike_type": 150, "lock_types": ["frame_lock"], "active": true, "state": "ok", "electric_lock": true, "boardcomputer": 7551085995, "pedelec_battery": null, "battery_pack": null}, {"number": "46631", "bike_type": 150, "lock_types": ["frame_lock"], "active": true, "state": "ok", "electric_lock": true, "boardcomputer": 7551088136, "pedelec_battery": null, "battery_pack": null}, {"number": "46613", "bike_type": 150, "lock_types": ["frame_lock"], "active": true, "state": "ok", "electric_lock": true, "boardcomputer": 7551114161, "pedelec_battery": null, "battery_pack": null}, {"number": "46583", "bike_type": 150, "lock_types": ["frame_lock"], "active": true, "state": "ok", "electric_lock": true, "boardcomputer": 7551088595, "pedelec_battery": null, "battery_pack": null}, {"number": "46571", "bike_type": 150, "lock_types": ["frame_lock"], "active": true, "state": "ok", "electric_lock": true, "boardcomputer": 7551088815, "pedelec_battery": null, "battery_pack": null}, {"number": "46559", "bike_type": 150, "lock_types": ["frame_lock"], "active": true, "state": "ok", "electric_lock": true, "boardcomputer": 7551088338, "pedelec_battery": null, "battery_pack": null}, {"number": "46552", "bike_type": 150, "lock_types": ["frame_lock"], "active": true, "state": "ok", "electric_lock": true, "boardcomputer": 7551094012, "pedelec_battery": null, "battery_pack": null}, {"number": "46537", "bike_type": 150, "lock_types": ["frame_lock"], "active": true, "state": "ok", "electric_lock": true, "boardcomputer": 7551088499, "pedelec_battery": null, "battery_pack": null}, {"number": "46502", "bike_type": 150, "lock_types": ["frame_lock"], "active": true, "state": "ok", "electric_lock": true, "boardcomputer": 7551094761, "pedelec_battery": null, "battery_pack": null}, {"number": "46475", "bike_type": 150, "lock_types": ["frame_lock"], "active": true, "state": "ok", "electric_lock": true, "boardcomputer": 7551084760, "pedelec_battery": null, "battery_pack": null}, {"number": "46474", "bike_type": 150, "lock_types": ["frame_lock"], "active": true, "state": "ok", "electric_lock": true, "boardcomputer": 7551131460, "pedelec_battery": null, "battery_pack": null}, {"number": "46431", "bike_type": 150, "lock_types": ["frame_lock"], "active": true, "state": "ok", "electric_lock": true, "boardcomputer": 7551088938, "pedelec_battery": null, "battery_pack": null}, {"number": "46404", "bike_type": 150, "lock_types": ["frame_lock"], "active": true, "state": "ok", "electric_lock": true, "boardcomputer": 7551088405, "pedelec_battery": null, "battery_pack": null}, {"number": "47931", "bike_type": 150, "lock_types": ["frame_lock"], "active": true, "state": "ok", "electric_lock": true, "boardcomputer": 7551088411, "pedelec_battery": null, "battery_pack": null}, {"number": "47962", "bike_type": 143, "lock_types": ["frame_lock"], "active": true, "state": "ok", "electric_lock": true, "boardcomputer": 7551107913, "pedelec_battery": 78, "battery_pack": {"percentage": 78}}], "bike_numbers": ["47470", "47376", "47180", "81100", "47592", "46986", "46976", "46974", "46973", "46940", "46864", "46858", "46848", "46830", "46702", "46631", "46613", "46583", "46571", "46559", "46552", "46537", "46502", "46475", "46474", "46431", "46404", "47931", "47962"], "bike_types": {"15": 5, "143": 1, "150": 23}, "place_type": "14", "rack_locks": true}, {"uid": 264293, "lat": 55.858167, "lng": -4.245483, "bike": false, "name": "Merchant Square - ELECTRIC", "address": null, "spot": true, "number": 8407, "booked_bikes": 0, "bikes": 19, "bikes_available_to_rent": 19, "bike_racks": 8, "free_racks": 2, "special_racks": 0, "free_special_racks": 2, "maintenance": false, "terminal_type": "smart_sign", "bike_list": [{"number": "47531", "bike_type": 15, "lock_types": ["fork_lock"], "active": true, "state": "ok", "electric_lock": true, "boardcomputer": 21135, "pedelec_battery": null, "battery_pack": null}, {"number": "47889", "bike_type": 143, "lock_types": ["frame_lock"], "active": true, "state": "ok", "electric_lock": true, "boardcomputer": 7551116086, "pedelec_battery": 100, "battery_pack": {"percentage": 100}}, {"number": "47859", "bike_type": 143, "lock_types": ["frame_lock"], "active": true, "state": "ok", "electric_lock": true, "boardcomputer": 7551123849, "pedelec_battery": 92, "battery_pack": {"percentage": 92}}, {"number": "46949", "bike_type": 150, "lock_types": ["frame_lock"], "active": true, "state": "ok", "electric_lock": true, "boardcomputer": 7551131524, "pedelec_battery": null, "battery_pack": null}, {"number": "46943", "bike_type": 150, "lock_types": ["frame_lock"], "active": true, "state": "ok", "electric_lock": true, "boardcomputer": 7551069951, "pedelec_battery": null, "battery_pack": null}, {"number": "46910", "bike_type": 150, "lock_types": ["frame_lock"], "active": true, "state": "ok", "electric_lock": true, "boardcomputer": 7551070340, "pedelec_battery": null, "battery_pack": null}, {"number": "46835", "bike_type": 150, "lock_types": ["frame_lock"], "active": true, "state": "ok", "electric_lock": true, "boardcomputer": 7551089114, "pedelec_battery": null, "battery_pack": null}, {"number": "46823", "bike_type": 150, "lock_types": ["frame_lock"], "active": true, "state": "ok", "electric_lock": true, "boardcomputer": 7551124011, "pedelec_battery": null, "battery_pack": null}, {"number": "46771", "bike_type": 150, "lock_types": ["frame_lock"], "active": true, "state": "ok", "electric_lock": true, "boardcomputer": 7551087874, "pedelec_battery": null, "battery_pack": null}, {"number": "46739", "bike_type": 150, "lock_types": ["frame_lock"], "active": true, "state": "ok", "electric_lock": true, "boardcomputer": 7551088654, "pedelec_battery": null, "battery_pack": null}, {"number": "46727", "bike_type": 150, "lock_types": ["frame_lock"], "active": true, "state": "ok", "electric_lock": true, "boardcomputer": 7551084602, "pedelec_battery": null, "battery_pack": null}, {"number": "46626", "bike_type": 150, "lock_types": ["frame_lock"], "active": true, "state": "ok", "electric_lock": true, "boardcomputer": 7551116095, "pedelec_battery": null, "battery_pack": null}, {"number": "46618", "bike_type": 150, "lock_types": ["frame_lock"], "active": true, "state": "ok", "electric_lock": true, "boardcomputer": 7551086910, "pedelec_battery": null, "battery_pack": null}, {"number": "46564", "bike_type": 150, "lock_types": ["frame_lock"], "active": true, "state": "ok", "electric_lock": true, "boardcomputer": 7551088260, "pedelec_battery": null, "battery_pack": null}, {"number": "46541", "bike_type": 150, "lock_types": ["frame_lock"], "active": true, "state": "ok", "electric_lock": true, "boardcomputer": 7551093958, "pedelec_battery": null, "battery_pack": null}, {"number": "46509", "bike_type": 150, "lock_types": ["frame_lock"], "active": true, "state": "ok", "electric_lock": true, "boardcomputer": 7551089003, "pedelec_battery": null, "battery_pack": null}, {"number": "46419", "bike_type": 150, "lock_types": ["frame_lock"], "active": true, "state": "ok", "electric_lock": true, "boardcomputer": 7551116012, "pedelec_battery": null, "battery_pack": null}, {"number": "47922", "bike_type": 150, "lock_types": ["frame_lock"], "active": true, "state": "ok", "electric_lock": true, "boardcomputer": 7551088572, "pedelec_battery": null, "battery_pack": null}, {"number": "829016", "bike_type": 15, "lock_types": ["fork_lock"], "active": true, "state": "ok", "electric_lock": true, "boardcomputer": 20210, "pedelec_battery": null, "battery_pack": null}], "bike_numbers": ["47531", "47889", "47859", "46949", "46943", "46910", "46835", "46823", "46771", "46739", "46727", "46626", "46618", "46564", "46541", "46509", "46419", "47922", "829016"], "bike_types": {"15": 2, "143": 2, "150": 15}, "place_type": "14", "rack_locks": true}, {"uid": 264294, "lat": 55.871367, "lng": -4.269117, "bike": false, "name": "St George's Cross - ELECTRIC", "address": null, "spot": true, "number": 8408, "booked_bikes": 0, "bikes": 7, "bikes_available_to_rent": 7, "bike_racks": 10, "free_racks": 2, "special_racks": 0, "free_special_racks": 2, "maintenance": false, "terminal_type": "smart_sign", "bike_list": [{"number": "47204", "bike_type": 15, "lock_types": ["fork_lock"], "active": true, "state": "ok", "electric_lock": true, "boardcomputer": 21731, "pedelec_battery": null, "battery_pack": null}, {"number": "47553", "bike_type": 15, "lock_types": ["fork_lock"], "active": true, "state": "ok", "electric_lock": true, "boardcomputer": 28542, "pedelec_battery": null, "battery_pack": null}, {"number": "47665", "bike_type": 143, "lock_types": ["frame_lock"], "active": true, "state": "ok", "electric_lock": true, "boardcomputer": 7551127089, "pedelec_battery": null, "battery_pack": null}, {"number": "46789", "bike_type": 150, "lock_types": ["frame_lock"], "active": true, "state": "ok", "electric_lock": true, "boardcomputer": 7551116688, "pedelec_battery": null, "battery_pack": null}, {"number": "46619", "bike_type": 150, "lock_types": ["frame_lock"], "active": true, "state": "ok", "electric_lock": true, "boardcomputer": 7551086019, "pedelec_battery": null, "battery_pack": null}, {"number": "46529", "bike_type": 150, "lock_types": ["frame_lock"], "active": true, "state": "ok", "electric_lock": true, "boardcomputer": 7551088421, "pedelec_battery": null, "battery_pack": null}, {"number": "47928", "bike_type": 150, "lock_types": ["frame_lock"], "active": true, "state": "ok", "electric_lock": true, "boardcomputer": 7551136832, "pedelec_battery": null, "battery_pack": null}], "bike_numbers": ["47204", "47553", "47665", "46789", "46619", "46529", "47928"], "bike_types": {"15": 2, "143": 1, "150": 4}, "place_type": "14", "rack_locks": true}, {"uid": 264295, "lat": 55.856859, "lng": -4.255593, "bike": false, "name": "St Enoch Square - ELECTRIC", "address": null, "spot": true, "number": 8410, "booked_bikes": 0, "bikes": 16, "bikes_available_to_rent": 16, "bike_racks": 10, "free_racks": 0, "special_racks": 0, "free_special_racks": 0, "maintenance": false, "terminal_type": "smart_sign", "bike_list": [{"number": "47898", "bike_type": 143, "lock_types": ["frame_lock"], "active": true, "state": "ok", "electric_lock": true, "boardcomputer": 7551063099, "pedelec_battery": null, "battery_pack": null}, {"number": "46967", "bike_type": 150, "lock_types": ["frame_lock"], "active": true, "state": "ok", "electric_lock": true, "boardcomputer": 7551068724, "pedelec_battery": null, "battery_pack": null}, {"number": "46924", "bike_type": 150, "lock_types": ["frame_lock"], "active": true, "state": "ok", "electric_lock": true, "boardcomputer": 7551061679, "pedelec_battery": null, "battery_pack": null}, {"number": "46902", "bike_type": 150, "lock_types": ["frame_lock"], "active": true, "state": "ok", "electric_lock": true, "boardcomputer": 7551114174, "pedelec_battery": null, "battery_pack": null}, {"number": "46797", "bike_type": 150, "lock_types": ["frame_lock"], "active": true, "state": "ok", "electric_lock": true, "boardcomputer": 7551089172, "pedelec_battery": null, "battery_pack": null}, {"number": "46755", "bike_type": 150, "lock_types": ["frame_lock"], "active": true, "state": "ok", "electric_lock": true, "boardcomputer": 7551087857, "pedelec_battery": null, "battery_pack": null}, {"number": "46748", "bike_type": 150, "lock_types": ["frame_lock"], "active": true, "state": "ok", "electric_lock": true, "boardcomputer": 7551088604, "pedelec_battery": null, "battery_pack": null}, {"number": "46740", "bike_type": 150, "lock_types": ["frame_lock"], "active": true, "state": "ok", "electric_lock": true, "boardcomputer": 7551088669, "pedelec_battery": null, "battery_pack": null}, {"number": "46736", "bike_type": 150, "lock_types": ["frame_lock"], "active": true, "state": "ok", "electric_lock": true, "boardcomputer": 7551071171, "pedelec_battery": null, "battery_pack": null}, {"number": "46646", "bike_type": 150, "lock_types": ["frame_lock"], "active": true, "state": "ok", "electric_lock": true, "boardcomputer": 7551086073, "pedelec_battery": null, "battery_pack": null}, {"number": "46638", "bike_type": 150, "lock_types": ["frame_lock"], "active": true, "state": "ok", "electric_lock": true, "boardcomputer": 7551088517, "pedelec_battery": null, "battery_pack": null}, {"number": "46625", "bike_type": 150, "lock_types": ["frame_lock"], "active": true, "state": "ok", "electric_lock": true, "boardcomputer": 7551086901, "pedelec_battery": null, "battery_pack": null}, {"number": "46526", "bike_type": 150, "lock_types": ["frame_lock"], "active": true, "state": "ok", "electric_lock": true, "boardcomputer": 7551088963, "pedelec_battery": null, "battery_pack": null}, {"number": "46433", "bike_type": 150, "lock_types": ["frame_lock"], "active": true, "state": "ok", "electric_lock": true, "boardcomputer": 7551088783, "pedelec_battery": null, "battery_pack": null}, {"number": "47935", "bike_type": 150, "lock_types": ["frame_lock"], "active": true, "state": "ok", "electric_lock": true, "boardcomputer": 7551088235, "pedelec_battery": null, "battery_pack": null}, {"number": "47933", "bike_type": 150, "lock_types": ["frame_lock"], "active": true, "state": "ok", "electric_lock": true, "boardcomputer": 7551088989, "pedelec_battery": null, "battery_pack": null}], "bike_numbers": ["47898", "46967", "46924", "46902", "46797", "46755", "46748", "46740", "46736", "46646", "46638", "46625", "46526", "46433", "47935", "47933"], "bike_types": {"143": 1, "150": 15}, "place_type": "14", "rack_locks": true}, {"uid": 264296, "lat": 55.862973, "lng": -4.237745, "bike": false, "name": "Glasgow Cathedral - ELECTRIC", "address": null, "spot": true, "number": 8409, "booked_bikes": 0, "bikes": 2, "bikes_available_to_rent": 2, "bike_racks": 6, "free_racks": 3, "special_racks": 0, "free_special_racks": 3, "maintenance": false, "terminal_type": "smart_sign", "bike_list": [{"number": "47144", "bike_type": 15, "lock_types": ["fork_lock"], "active": true, "state": "ok", "electric_lock": true, "boardcomputer": 21385, "pedelec_battery": null, "battery_pack": null}, {"number": "47971", "bike_type": 143, "lock_types": ["frame_lock"], "active": true, "state": "ok", "electric_lock": true, "boardcomputer": 7551113779, "pedelec_battery": 60, "battery_pack": {"percentage": 60}}], "bike_numbers": ["47144", "47971"], "bike_types": {"15": 1, "143": 1}, "place_type": "14", "rack_locks": true}, {"uid": 264298, "lat": 55.84945, "lng": -4.23375, "bike": false, "name": "Glasgow Green", "address": null, "spot": true, "number": 8412, "booked_bikes": 0, "bikes": 7, "bikes_available_to_rent": 7, "bike_racks": 8, "free_racks": 1, "special_racks": 0, "free_special_racks": 0, "maintenance": false, "terminal_type": "smart_sign", "bike_list": [{"number": "47523", "bike_type": 15, "lock_types": ["fork_lock"], "active": true, "state": "ok", "electric_lock": true, "boardcomputer": 28560, "pedelec_battery": null, "battery_pack": null}, {"number": "46891", "bike_type": 150, "lock_types": ["frame_lock"], "active": true, "state": "ok", "electric_lock": true, "boardcomputer": 7551126884, "pedelec_battery": null, "battery_pack": null}, {"number": "46784", "bike_type": 150, "lock_types": ["frame_lock"], "active": true, "state": "ok", "electric_lock": true, "boardcomputer": 7551089183, "pedelec_battery": null, "battery_pack": null}, {"number": "46681", "bike_type": 150, "lock_types": ["frame_lock"], "active": true, "state": "ok", "electric_lock": true, "boardcomputer": 7551126374, "pedelec_battery": null, "battery_pack": null}, {"number": "46589", "bike_type": 150, "lock_types": ["frame_lock"], "active": true, "state": "ok", "electric_lock": true, "boardcomputer": 7551068500, "pedelec_battery": null, "battery_pack": null}, {"number": "46488", "bike_type": 150, "lock_types": ["frame_lock"], "active": true, "state": "ok", "electric_lock": true, "boardcomputer": 7551135591, "pedelec_battery": null, "battery_pack": null}, {"number": "47940", "bike_type": 143, "lock_types": ["frame_lock"], "active": true, "state": "ok", "electric_lock": true, "boardcomputer": 7551108077, "pedelec_battery": 76, "battery_pack": {"percentage": 76}}], "bike_numbers": ["47523", "46891", "46784", "46681", "46589", "46488", "47940"], "bike_types": {"15": 1, "143": 1, "150": 5}, "place_type": "0", "rack_locks": false}, {"uid": 264299, "lat": 55.8566, "lng": -4.263521, "bike": false, "name": "Broomielaw - ELECTRIC", "address": null, "spot": true, "number": 8413, "booked_bikes": 0, "bikes": 1, "bikes_available_to_rent": 1, "bike_racks": 8, "free_racks": 7, "special_racks": 0, "free_special_racks": 7, "maintenance": false, "terminal_type": "smart_sign", "bike_list": [{"number": "840006", "bike_type": 182, "lock_types": ["frame_lock"], "active": true, "state": "ok", "electric_lock": true, "boardcomputer": 7551051267, "pedelec_battery": null, "battery_pack": null}], "bike_numbers": ["840006"], "bike_types": {"182": 1}, "place_type": "14", "rack_locks": true}, {"uid": 264300, "lat": 55.859081, "lng": -4.287211, "bike": false, "name": "Scottish Event Campus (formerly S.E.C.C)", "address": null, "spot": true, "number": 8415, "booked_bikes": 0, "bikes": 16, "bikes_available_to_rent": 16, "bike_racks": 8, "free_racks": 0, "special_racks": 0, "free_special_racks": 0, "maintenance": false, "terminal_type": "smart_sign", "bike_list": [{"number": "47367", "bike_type": 15, "lock_types": ["fork_lock"], "active": true, "state": "ok", "electric_lock": true, "boardcomputer": 21022, "pedelec_battery": null, "battery_pack": null}, {"number": "47284", "bike_type": 15, "lock_types": ["fork_lock"], "active": true, "state": "ok", "electric_lock": true, "boardcomputer": 29655, "pedelec_battery": null, "battery_pack": null}, {"number": "47866", "bike_type": 143, "lock_types": ["frame_lock"], "active": true, "state": "ok", "electric_lock": true, "boardcomputer": 7551114109, "pedelec_battery": 0, "battery_pack": {"percentage": 0}}, {"number": "46941", "bike_type": 150, "lock_types": ["frame_lock"], "active": true, "state": "ok", "electric_lock": true, "boardcomputer": 7551123906, "pedelec_battery": null, "battery_pack": null}, {"number": "46911", "bike_type": 150, "lock_types": ["frame_lock"], "active": true, "state": "ok", "electric_lock": true, "boardcomputer": 7551114025, "pedelec_battery": null, "battery_pack": null}, {"number": "46763", "bike_type": 150, "lock_types": ["frame_lock"], "active": true, "state": "ok", "electric_lock": true, "boardcomputer": 7551126672, "pedelec_battery": null, "battery_pack": null}, {"number": "46731", "bike_type": 150, "lock_types": ["frame_lock"], "active": true, "state": "ok", "electric_lock": true, "boardcomputer": 7551088695, "pedelec_battery": null, "battery_pack": null}, {"number": "46713", "bike_type": 150, "lock_types": ["frame_lock"], "active": true, "state": "ok", "electric_lock": true, "boardcomputer": 7551087504, "pedelec_battery": null, "battery_pack": null}, {"number": "46665", "bike_type": 150, "lock_types": ["frame_lock"], "active": true, "state": "ok", "electric_lock": true, "boardcomputer": 7551088949, "pedelec_battery": null, "battery_pack": null}, {"number": "46657", "bike_type": 150, "lock_types": ["frame_lock"], "active": true, "state": "ok", "electric_lock": true, "boardcomputer": 7551135585, "pedelec_battery": null, "battery_pack": null}, {"number": "46639", "bike_type": 150, "lock_types": ["frame_lock"], "active": true, "state": "ok", "electric_lock": true, "boardcomputer": 7551088430, "pedelec_battery": null, "battery_pack": null}, {"number": "46533", "bike_type": 150, "lock_types": ["frame_lock"], "active": true, "state": "ok", "electric_lock": true, "boardcomputer": 7551088500, "pedelec_battery": null, "battery_pack": null}, {"number": "46498", "bike_type": 150, "lock_types": ["frame_lock"], "active": true, "state": "ok", "electric_lock": true, "boardcomputer": 7551088694, "pedelec_battery": null, "battery_pack": null}, {"number": "46490", "bike_type": 150, "lock_types": ["frame_lock"], "active": true, "state": "ok", "electric_lock": true, "boardcomputer": 7551088655, "pedelec_battery": null, "battery_pack": null}, {"number": "46457", "bike_type": 150, "lock_types": ["frame_lock"], "active": true, "state": "ok", "electric_lock": true, "boardcomputer": 7551088931, "pedelec_battery": null, "battery_pack": null}, {"number": "46413", "bike_type": 150, "lock_types": ["frame_lock"], "active": true, "state": "ok", "electric_lock": true, "boardcomputer": 7551093290, "pedelec_battery": null, "battery_pack": null}], "bike_numbers": ["47367", "47284", "47866", "46941", "46911", "46763", "46731", "46713", "46665", "46657", "46639", "46533", "46498", "46490", "46457", "46413"], "bike_types": {"15": 2, "143": 1, "150": 13}, "place_type": "0", "rack_locks": false}, {"uid": 264301, "lat": 55.8849, "lng": -4.281414, "bike": false, "name": "Queen Margaret Drive / Maryhill Road", "address": "8 sandfield st ", "spot": true, "number": 8419, "booked_bikes": 0, "bikes": 0, "bikes_available_to_rent": 0, "bike_racks": 8, "free_racks": 8, "special_racks": 0, "free_special_racks": 0, "maintenance": false, "terminal_type": "smart_sign", "bike_list": [], "bike_numbers": [], "bike_types": {}, "place_type": "0", "rack_locks": false}, {"uid": 264302, "lat": 55.878278, "lng": -4.288487, "bike": false, "name": "Botanic Gardens - ELECTRIC", "address": null, "spot": true, "number": 8417, "booked_bikes": 0, "bikes": 2, "bikes_available_to_rent": 2, "bike_racks": 8, "free_racks": 6, "special_racks": 0, "free_special_racks": 3, "maintenance": false, "terminal_type": "smart_sign", "bike_list": [{"number": "47254", "bike_type": 15, "lock_types": ["fork_lock"], "active": true, "state": "ok", "electric_lock": true, "boardcomputer": 20851, "pedelec_battery": null, "battery_pack": null}, {"number": "47894", "bike_type": 143, "lock_types": ["frame_lock"], "active": true, "state": "ok", "electric_lock": true, "boardcomputer": 7551116028, "pedelec_battery": null, "battery_pack": null}], "bike_numbers": ["47254", "47894"], "bike_types": {"15": 1, "143": 1}, "place_type": "14", "rack_locks": true}, {"uid": 264303, "lat": 55.87501, "lng": -4.280371, "bike": false, "name": "Kelvinbridge Subway - ELECTRIC", "address": null, "spot": true, "number": 8418, "booked_bikes": 0, "bikes": 9, "bikes_available_to_rent": 9, "bike_racks": 8, "free_racks": 3, "special_racks": 0, "free_special_racks": 3, "maintenance": false, "terminal_type": "smart_sign", "bike_list": [{"number": "47009", "bike_type": 15, "lock_types": ["fork_lock"], "active": true, "state": "ok", "electric_lock": true, "boardcomputer": 27564, "pedelec_battery": null, "battery_pack": null}, {"number": "46668", "bike_type": 150, "lock_types": ["frame_lock"], "active": true, "state": "ok", "electric_lock": true, "boardcomputer": 7551088865, "pedelec_battery": null, "battery_pack": null}, {"number": "46637", "bike_type": 150, "lock_types": ["frame_lock"], "active": true, "state": "ok", "electric_lock": true, "boardcomputer": 7551088450, "pedelec_battery": null, "battery_pack": null}, {"number": "46477", "bike_type": 150, "lock_types": ["frame_lock"], "active": true, "state": "ok", "electric_lock": true, "boardcomputer": 7551093324, "pedelec_battery": null, "battery_pack": null}, {"number": "46468", "bike_type": 150, "lock_types": ["frame_lock"], "active": true, "state": "ok", "electric_lock": true, "boardcomputer": 7551114179, "pedelec_battery": null, "battery_pack": null}, {"number": "46450", "bike_type": 150, "lock_types": ["frame_lock"], "active": true, "state": "ok", "electric_lock": true, "boardcomputer": 7551088991, "pedelec_battery": null, "battery_pack": null}, {"number": "47904", "bike_type": 150, "lock_types": ["frame_lock"], "active": true, "state": "ok", "electric_lock": true, "boardcomputer": 7551088704, "pedelec_battery": null, "battery_pack": null}, {"number": "47945", "bike_type": 143, "lock_types": ["frame_lock"], "active": true, "state": "ok", "electric_lock": true, "boardcomputer": 7551108692, "pedelec_battery": null, "battery_pack": null}, {"number": "829009", "bike_type": 15, "lock_types": ["fork_lock"], "active": true, "state": "ok", "electric_lock": true, "boardcomputer": 20200, "pedelec_battery": null, "battery_pack": null}], "bike_numbers": ["47009", "46668", "46637", "46477", "46468", "46450", "47904", "47945", "829009"], "bike_types": {"15": 2, "143": 1, "150": 6}, "place_type": "14", "rack_locks": true}, {"uid": 264304, "lat": 55.868352, "lng": -4.289405, "bike": false, "name": "Kelvingrove Art Gallery - ELECTRIC", "address": null, "spot": true, "number": 8420, "booked_bikes": 0, "bikes": 5, "bikes_available_to_rent": 5, "bike_racks": 6, "free_racks": 3, "special_racks": 0, "free_special_racks": 3, "maintenance": false, "terminal_type": "smart_sign", "bike_list": [{"number": "81164", "bike_type": 15, "lock_types": ["fork_lock"], "active": true, "state": "ok", "electric_lock": true, "boardcomputer": 21614, "pedelec_battery": null, "battery_pack": null}, {"number": "47837", "bike_type": 143, "lock_types": ["frame_lock"], "active": true, "state": "ok", "electric_lock": true, "boardcomputer": 7551068491, "pedelec_battery": null, "battery_pack": null}, {"number": "46722", "bike_type": 150, "lock_types": ["frame_lock"], "active": true, "state": "ok", "electric_lock": true, "boardcomputer": 7551088598, "pedelec_battery": null, "battery_pack": null}, {"number": "46650", "bike_type": 150, "lock_types": ["frame_lock"], "active": true, "state": "ok", "electric_lock": true, "boardcomputer": 7551088706, "pedelec_battery": null, "battery_pack": null}, {"number": "47970", "bike_type": 143, "lock_types": ["frame_lock"], "active": true, "state": "ok", "electric_lock": true, "boardcomputer": 7551108008, "pedelec_battery": 91, "battery_pack": {"percentage": 91}}], "bike_numbers": ["81164", "47837", "46722", "46650", "47970"], "bike_types": {"15": 1, "143": 2, "150": 2}, "place_type": "14", "rack_locks": true}, {"uid": 264306, "lat": 55.872774, "lng": -4.292135, "bike": false, "name": "University of Glasgow (West)", "address": null, "spot": true, "number": 8422, "booked_bikes": 0, "bikes": 12, "bikes_available_to_rent": 12, "bike_racks": 10, "free_racks": 0, "special_racks": 0, "free_special_racks": 0, "maintenance": false, "terminal_type": "smart_sign", "bike_list": [{"number": "47012", "bike_type": 15, "lock_types": ["fork_lock"], "active": true, "state": "ok", "electric_lock": true, "boardcomputer": 21729, "pedelec_battery": null, "battery_pack": null}, {"number": "47587", "bike_type": 15, "lock_types": ["fork_lock"], "active": true, "state": "ok", "electric_lock": true, "boardcomputer": 29677, "pedelec_battery": null, "battery_pack": null}, {"number": "47775", "bike_type": 15, "lock_types": ["fork_lock"], "active": true, "state": "ok", "electric_lock": true, "boardcomputer": 21208, "pedelec_battery": null, "battery_pack": null}, {"number": "47751", "bike_type": 15, "lock_types": ["fork_lock"], "active": true, "state": "ok", "electric_lock": true, "boardcomputer": 28420, "pedelec_battery": null, "battery_pack": null}, {"number": "47844", "bike_type": 143, "lock_types": ["frame_lock"], "active": true, "state": "ok", "electric_lock": true, "boardcomputer": 7551115800, "pedelec_battery": null, "battery_pack": null}, {"number": "46874", "bike_type": 150, "lock_types": ["frame_lock"], "active": true, "state": "ok", "electric_lock": true, "boardcomputer": 7551127123, "pedelec_battery": null, "battery_pack": null}, {"number": "46862", "bike_type": 150, "lock_types": ["frame_lock"], "active": true, "state": "ok", "electric_lock": true, "boardcomputer": 7551116613, "pedelec_battery": null, "battery_pack": null}, {"number": "46810", "bike_type": 150, "lock_types": ["frame_lock"], "active": true, "state": "ok", "electric_lock": true, "boardcomputer": 7551088761, "pedelec_battery": null, "battery_pack": null}, {"number": "46792", "bike_type": 150, "lock_types": ["frame_lock"], "active": true, "state": "ok", "electric_lock": true, "boardcomputer": 7551114177, "pedelec_battery": null, "battery_pack": null}, {"number": "46620", "bike_type": 150, "lock_types": ["frame_lock"], "active": true, "state": "ok", "electric_lock": true, "boardcomputer": 7551132612, "pedelec_battery": null, "battery_pack": null}, {"number": "46531", "bike_type": 150, "lock_types": ["frame_lock"], "active": true, "state": "ok", "electric_lock": true, "boardcomputer": 7551084429, "pedelec_battery": null, "battery_pack": null}, {"number": "46473", "bike_type": 150, "lock_types": ["frame_lock"], "active": true, "state": "ok", "electric_lock": true, "boardcomputer": 7551093322, "pedelec_battery": null, "battery_pack": null}], "bike_numbers": ["47012", "47587", "47775", "47751", "47844", "46874", "46862", "46810", "46792", "46620", "46531", "46473"], "bike_types": {"15": 4, "143": 1, "150": 7}, "place_type": "0", "rack_locks": false}, {"uid": 264308, "lat": 55.864788, "lng": -4.271852, "bike": false, "name": "Mitchell Library", "address": null, "spot": true, "number": 8425, "booked_bikes": 0, "bikes": 2, "bikes_available_to_rent": 2, "bike_racks": 6, "free_racks": 1, "special_racks": 0, "free_special_racks": 0, "maintenance": false, "terminal_type": "smart_sign", "bike_list": [{"number": "46592", "bike_type": 150, "lock_types": ["frame_lock"], "active": true, "state": "ok", "electric_lock": true, "boardcomputer": 7551084586, "pedelec_battery": null, "battery_pack": null}, {"number": "829003", "bike_type": 15, "lock_types": ["fork_lock"], "active": true, "state": "ok", "electric_lock": true, "boardcomputer": 27893, "pedelec_battery": null, "battery_pack": null}], "bike_numbers": ["46592", "829003"], "bike_types": {"15": 1, "150": 1}, "place_type": "0", "rack_locks": false}, {"uid": 264309, "lat": 55.862983, "lng": -4.241, "bike": false, "name": "University of Strathclyde (North)", "address": null, "spot": true, "number": 8424, "booked_bikes": 0, "bikes": 0, "bikes_available_to_rent": 0, "bike_racks": 3, "free_racks": 1, "special_racks": 0, "free_special_racks": 0, "maintenance": false, "terminal_type": "smart_sign", "bike_list": [], "bike_numbers": [], "bike_types": {}, "place_type": "0", "rack_locks": false}, {"uid": 264316, "lat": 55.8525, "lng": -4.25885, "bike": false, "name": "Bridge Street Subway - ELECTRIC", "address": null, "spot": true, "number": 8432, "booked_bikes": 0, "bikes": 16, "bikes_available_to_rent": 16, "bike_racks": 5, "free_racks": 3, "special_racks": 0, "free_special_racks": 3, "maintenance": false, "terminal_type": "smart_sign", "bike_list": [{"number": "81132", "bike_type": 15, "lock_types": ["fork_lock"], "active": true, "state": "ok", "electric_lock": true, "boardcomputer": 28863, "pedelec_battery": null, "battery_pack": null}, {"number": "46915", "bike_type": 150, "lock_types": ["frame_lock"], "active": true, "state": "ok", "electric_lock": true, "boardcomputer": 7551135589, "pedelec_battery": null, "battery_pack": null}, {"number": "46900", "bike_type": 150, "lock_types": ["frame_lock"], "active": true, "state": "ok", "electric_lock": true, "boardcomputer": 7551069937, "pedelec_battery": null, "battery_pack": null}, {"number": "46880", "bike_type": 150, "lock_types": ["frame_lock"], "active": true, "state": "ok", "electric_lock": true, "boardcomputer": 7551116525, "pedelec_battery": null, "battery_pack": null}, {"number": "46820", "bike_type": 150, "lock_types": ["frame_lock"], "active": true, "state": "ok", "electric_lock": true, "boardcomputer": 7551089207, "pedelec_battery": null, "battery_pack": null}, {"number": "46788", "bike_type": 150, "lock_types": ["frame_lock"], "active": true, "state": "ok", "electric_lock": true, "boardcomputer": 7551089176, "pedelec_battery": null, "battery_pack": null}, {"number": "46766", "bike_type": 150, "lock_types": ["frame_lock"], "active": true, "state": "ok", "electric_lock": true, "boardcomputer": 7551089043, "pedelec_battery": null, "battery_pack": null}, {"number": "46676", "bike_type": 150, "lock_types": ["frame_lock"], "active": true, "state": "ok", "electric_lock": true, "boardcomputer": 7551080704, "pedelec_battery": null, "battery_pack": null}, {"number": "46549", "bike_type": 150, "lock_types": ["frame_lock"], "active": true, "state": "ok", "electric_lock": true, "boardcomputer": 7551116317, "pedelec_battery": null, "battery_pack": null}, {"number": "46544", "bike_type": 150, "lock_types": ["frame_lock"], "active": true, "state": "ok", "electric_lock": true, "boardcomputer": 7551094045, "pedelec_battery": null, "battery_pack": null}, {"number": "46535", "bike_type": 150, "lock_types": ["frame_lock"], "active": true, "state": "ok", "electric_lock": true, "boardcomputer": 7551088268, "pedelec_battery": null, "battery_pack": null}, {"number": "46514", "bike_type": 150, "lock_types": ["frame_lock"], "active": true, "state": "ok", "electric_lock": true, "boardcomputer": 7551084405, "pedelec_battery": null, "battery_pack": null}, {"number": "46445", "bike_type": 150, "lock_types": ["frame_lock"], "active": true, "state": "ok", "electric_lock": true, "boardcomputer": 7551088448, "pedelec_battery": null, "battery_pack": null}, {"number": "46408", "bike_type": 150, "lock_types": ["frame_lock"], "active": true, "state": "ok", "electric_lock": true, "boardcomputer": 7551088856, "pedelec_battery": null, "battery_pack": null}, {"number": "46400", "bike_type": 150, "lock_types": ["frame_lock"], "active": true, "state": "ok", "electric_lock": true, "boardcomputer": 7551093297, "pedelec_battery": null, "battery_pack": null}, {"number": "47969", "bike_type": 143, "lock_types": ["frame_lock"], "active": true, "state": "ok", "electric_lock": true, "boardcomputer": 7551108154, "pedelec_battery": 100, "battery_pack": {"percentage": 100}}], "bike_numbers": ["81132", "46915", "46900", "46880", "46820", "46788", "46766", "46676", "46549", "46544", "46535", "46514", "46445", "46408", "46400", "47969"], "bike_types": {"15": 1, "143": 1, "150": 14}, "place_type": "14", "rack_locks": true}, {"uid": 264392, "lat": 55.857575, "lng": -4.249976, "bike": false, "name": "Argyle Street Railway Station - ELECTRIC", "address": null, "spot": true, "number": 8411, "booked_bikes": 0, "bikes": 12, "bikes_available_to_rent": 12, "bike_racks": 7, "free_racks": 3, "special_racks": 0, "free_special_racks": 3, "maintenance": true, "terminal_type": "smart_sign", "bike_list": [{"number": "47333", "bike_type": 15, "lock_types": ["fork_lock"], "active": true, "state": "ok", "electric_lock": true, "boardcomputer": 29832, "pedelec_battery": null, "battery_pack": null}, {"number": "46964", "bike_type": 150, "lock_types": ["frame_lock"], "active": true, "state": "ok", "electric_lock": true, "boardcomputer": 7551132760, "pedelec_battery": null, "battery_pack": null}, {"number": "46829", "bike_type": 150, "lock_types": ["frame_lock"], "active": true, "state": "ok", "electric_lock": true, "boardcomputer": 7551089026, "pedelec_battery": null, "battery_pack": null}, {"number": "46808", "bike_type": 150, "lock_types": ["frame_lock"], "active": true, "state": "ok", "electric_lock": true, "boardcomputer": 7551088756, "pedelec_battery": null, "battery_pack": null}, {"number": "46787", "bike_type": 150, "lock_types": ["frame_lock"], "active": true, "state": "ok", "electric_lock": true, "boardcomputer": 7551089090, "pedelec_battery": null, "battery_pack": null}, {"number": "46775", "bike_type": 150, "lock_types": ["frame_lock"], "active": true, "state": "ok", "electric_lock": true, "boardcomputer": 7551089125, "pedelec_battery": null, "battery_pack": null}, {"number": "46641", "bike_type": 150, "lock_types": ["frame_lock"], "active": true, "state": "ok", "electric_lock": true, "boardcomputer": 7551094037, "pedelec_battery": null, "battery_pack": null}, {"number": "46560", "bike_type": 150, "lock_types": ["frame_lock"], "active": true, "state": "ok", "electric_lock": true, "boardcomputer": 7551088298, "pedelec_battery": null, "battery_pack": null}, {"number": "46536", "bike_type": 150, "lock_types": ["frame_lock"], "active": true, "state": "ok", "electric_lock": true, "boardcomputer": 7551088579, "pedelec_battery": null, "battery_pack": null}, {"number": "46491", "bike_type": 150, "lock_types": ["frame_lock"], "active": true, "state": "ok", "electric_lock": true, "boardcomputer": 7551088990, "pedelec_battery": null, "battery_pack": null}, {"number": "46411", "bike_type": 150, "lock_types": ["frame_lock"], "active": true, "state": "ok", "electric_lock": true, "boardcomputer": 7551088988, "pedelec_battery": null, "battery_pack": null}, {"number": "47937", "bike_type": 143, "lock_types": ["frame_lock"], "active": true, "state": "ok", "electric_lock": true, "boardcomputer": 7551133124, "pedelec_battery": 100, "battery_pack": {"percentage": 100}}], "bike_numbers": ["47333", "46964", "46829", "46808", "46787", "46775", "46641", "46560", "46536", "46491", "46411", "47937"], "bike_types": {"15": 1, "143": 1, "150": 10}, "place_type": "14", "rack_locks": true}, {"uid": 266157, "lat": 55.865817, "lng": -4.251367, "bike": false, "name": "Glasgow Caledonian University - ELECTRIC", "address": null, "spot": true, "number": 8405, "booked_bikes": 0, "bikes": 2, "bikes_available_to_rent": 2, "bike_racks": 6, "free_racks": 4, "special_racks": 0, "free_special_racks": 4, "maintenance": false, "terminal_type": "smart_sign", "bike_list": [{"number": "47493", "bike_type": 15, "lock_types": ["analog_code_lock", "fork_lock"], "active": true, "state": "ok", "electric_lock": true, "boardcomputer": 28415, "pedelec_battery": null, "battery_pack": null}, {"number": "46782", "bike_type": 150, "lock_types": ["frame_lock"], "active": true, "state": "ok", "electric_lock": true, "boardcomputer": 7551089902, "pedelec_battery": null, "battery_pack": null}], "bike_numbers": ["47493", "46782"], "bike_types": {"15": 1, "150": 1}, "place_type": "14", "rack_locks": true}, {"uid": 266166, "lat": 55.846515, "lng": -4.208477, "bike": false, "name": "Emirates Arena", "address": null, "spot": true, "number": 8428, "booked_bikes": 0, "bikes": 8, "bikes_available_to_rent": 8, "bike_racks": 12, "free_racks": 4, "special_racks": 0, "free_special_racks": 0, "maintenance": false, "terminal_type": "smart_sign", "bike_list": [{"number": "47374", "bike_type": 15, "lock_types": ["fork_lock"], "active": true, "state": "ok", "electric_lock": true, "boardcomputer": 21764, "pedelec_battery": null, "battery_pack": null}, {"number": "47110", "bike_type": 15, "lock_types": ["fork_lock"], "active": true, "state": "ok", "electric_lock": true, "boardcomputer": 28087, "pedelec_battery": null, "battery_pack": null}, {"number": "47041", "bike_type": 15, "lock_types": ["fork_lock"], "active": true, "state": "ok", "electric_lock": true, "boardcomputer": 21966, "pedelec_battery": null, "battery_pack": null}, {"number": "47022", "bike_type": 15, "lock_types": ["fork_lock"], "active": true, "state": "ok", "electric_lock": true, "boardcomputer": 22025, "pedelec_battery": null, "battery_pack": null}, {"number": "47006", "bike_type": 15, "lock_types": ["fork_lock"], "active": true, "state": "ok", "electric_lock": true, "boardcomputer": 21782, "pedelec_battery": null, "battery_pack": null}, {"number": "47890", "bike_type": 143, "lock_types": ["frame_lock"], "active": true, "state": "ok", "electric_lock": true, "boardcomputer": 7551132610, "pedelec_battery": 68, "battery_pack": {"percentage": 68}}, {"number": "46912", "bike_type": 150, "lock_types": ["frame_lock"], "active": true, "state": "ok", "electric_lock": true, "boardcomputer": 7551070339, "pedelec_battery": null, "battery_pack": null}, {"number": "47967", "bike_type": 143, "lock_types": ["frame_lock"], "active": true, "state": "ok", "electric_lock": true, "boardcomputer": 7551135064, "pedelec_battery": 71, "battery_pack": {"percentage": 71}}], "bike_numbers": ["47374", "47110", "47041", "47022", "47006", "47890", "46912", "47967"], "bike_types": {"15": 5, "143": 2, "150": 1}, "place_type": "0", "rack_locks": false}, {"uid": 266168, "lat": 55.859716, "lng": -4.251945, "bike": false, "name": "Gallery of Modern Art - ELECTRIC", "address": null, "spot": true, "number": 8430, "booked_bikes": 0, "bikes": 14, "bikes_available_to_rent": 14, "bike_racks": 6, "free_racks": 2, "special_racks": 0, "free_special_racks": 2, "maintenance": false, "terminal_type": "smart_sign", "bike_list": [{"number": "47290", "bike_type": 15, "lock_types": ["fork_lock"], "active": true, "state": "ok", "electric_lock": true, "boardcomputer": 21712, "pedelec_battery": null, "battery_pack": null}, {"number": "47286", "bike_type": 15, "lock_types": ["fork_lock"], "active": true, "state": "ok", "electric_lock": true, "boardcomputer": 28413, "pedelec_battery": null, "battery_pack": null}, {"number": "825640", "bike_type": 143, "lock_types": ["frame_lock"], "active": true, "state": "ok", "electric_lock": true, "boardcomputer": 7551059144, "pedelec_battery": 82, "battery_pack": {"percentage": 82}}, {"number": "46955", "bike_type": 150, "lock_types": ["frame_lock"], "active": true, "state": "ok", "electric_lock": true, "boardcomputer": 7551070362, "pedelec_battery": null, "battery_pack": null}, {"number": "46889", "bike_type": 150, "lock_types": ["frame_lock"], "active": true, "state": "ok", "electric_lock": true, "boardcomputer": 7551116084, "pedelec_battery": null, "battery_pack": null}, {"number": "46735", "bike_type": 150, "lock_types": ["frame_lock"], "active": true, "state": "ok", "electric_lock": true, "boardcomputer": 7551088370, "pedelec_battery": null, "battery_pack": null}, {"number": "46688", "bike_type": 150, "lock_types": ["frame_lock"], "active": true, "state": "ok", "electric_lock": true, "boardcomputer": 7551086899, "pedelec_battery": null, "battery_pack": null}, {"number": "46654", "bike_type": 150, "lock_types": ["frame_lock"], "active": true, "state": "ok", "electric_lock": true, "boardcomputer": 7551133120, "pedelec_battery": null, "battery_pack": null}, {"number": "46640", "bike_type": 150, "lock_types": ["frame_lock"], "active": true, "state": "ok", "electric_lock": true, "boardcomputer": 7551088560, "pedelec_battery": null, "battery_pack": null}, {"number": "46568", "bike_type": 150, "lock_types": ["frame_lock"], "active": true, "state": "ok", "electric_lock": true, "boardcomputer": 7551088546, "pedelec_battery": null, "battery_pack": null}, {"number": "46460", "bike_type": 150, "lock_types": ["frame_lock"], "active": true, "state": "ok", "electric_lock": true, "boardcomputer": 7551136834, "pedelec_battery": null, "battery_pack": null}, {"number": "46402", "bike_type": 150, "lock_types": ["frame_lock"], "active": true, "state": "ok", "electric_lock": true, "boardcomputer": 7551094902, "pedelec_battery": null, "battery_pack": null}, {"number": "47918", "bike_type": 150, "lock_types": ["frame_lock"], "active": true, "state": "ok", "electric_lock": true, "boardcomputer": 7551088538, "pedelec_battery": null, "battery_pack": null}, {"number": "47965", "bike_type": 143, "lock_types": ["frame_lock"], "active": true, "state": "ok", "electric_lock": true, "boardcomputer": 7551109053, "pedelec_battery": 100, "battery_pack": {"percentage": 100}}], "bike_numbers": ["47290", "47286", "825640", "46955", "46889", "46735", "46688", "46654", "46640", "46568", "46460", "46402", "47918", "47965"], "bike_types": {"15": 2, "143": 2, "150": 10}, "place_type": "14", "rack_locks": true}, {"uid": 266169, "lat": 55.855961, "lng": -4.244671, "bike": false, "name": "Trongate", "address": null, "spot": true, "number": 8431, "booked_bikes": 0, "bikes": 1, "bikes_available_to_rent": 1, "bike_racks": 5, "free_racks": 4, "special_racks": 0, "free_special_racks": 0, "maintenance": false, "terminal_type": "smart_sign", "bike_list": [{"number": "47955", "bike_type": 143, "lock_types": ["frame_lock"], "active": true, "state": "ok", "electric_lock": true, "boardcomputer": 7551132704, "pedelec_battery": 99, "battery_pack": {"percentage": 99}}], "bike_numbers": ["47955"], "bike_types": {"143": 1}, "place_type": "0", "rack_locks": false}, {"uid": 266170, "lat": 55.860633, "lng": -4.2419, "bike": false, "name": "University of Strathclyde (South) - ELECTRIC", "address": null, "spot": true, "number": 8433, "booked_bikes": 0, "bikes": 0, "bikes_available_to_rent": 0, "bike_racks": 6, "free_racks": 6, "special_racks": 0, "free_special_racks": 4, "maintenance": false, "terminal_type": "smart_sign", "bike_list": [], "bike_numbers": [], "bike_types": {}, "place_type": "14", "rack_locks": true}, {"uid": 266171, "lat": 55.871763, "lng": -4.27807, "bike": false, "name": "University of Glasgow (East) - ELECTRIC", "address": null, "spot": true, "number": 8435, "booked_bikes": 0, "bikes": 3, "bikes_available_to_rent": 3, "bike_racks": 5, "free_racks": 5, "special_racks": 0, "free_special_racks": 5, "maintenance": false, "terminal_type": "smart_sign", "bike_list": [{"number": "47960", "bike_type": 143, "lock_types": ["frame_lock"], "active": true, "state": "ok", "electric_lock": true, "boardcomputer": 7551111501, "pedelec_battery": 86, "battery_pack": {"percentage": 86}}, {"number": "47959", "bike_type": 143, "lock_types": ["frame_lock"], "active": true, "state": "ok", "electric_lock": true, "boardcomputer": 7551108631, "pedelec_battery": 100, "battery_pack": {"percentage": 100}}, {"number": "47947", "bike_type": 143, "lock_types": ["frame_lock"], "active": true, "state": "ok", "electric_lock": true, "boardcomputer": 7551108816, "pedelec_battery": 92, "battery_pack": {"percentage": 92}}], "bike_numbers": ["47960", "47959", "47947"], "bike_types": {"143": 3}, "place_type": "14", "rack_locks": true}, {"uid": 266218, "lat": 55.869707, "lng": -4.308459, "bike": false, "name": "Partick Interchange ", "address": null, "spot": true, "number": 8423, "booked_bikes": 0, "bikes": 1, "bikes_available_to_rent": 1, "bike_racks": 6, "free_racks": 4, "special_racks": 0, "free_special_racks": 0, "maintenance": false, "terminal_type": "smart_sign", "bike_list": [{"number": "81122", "bike_type": 15, "lock_types": ["fork_lock"], "active": true, "state": "ok", "electric_lock": true, "boardcomputer": 29963, "pedelec_battery": null, "battery_pack": null}], "bike_numbers": ["81122"], "bike_types": {"15": 1}, "place_type": "0", "rack_locks": false}, {"uid": 315912, "lat": 55.863422, "lng": -4.280677, "bike": false, "name": "Finnieston Street", "address": null, "spot": true, "number": 8438, "booked_bikes": 0, "bikes": 6, "bikes_available_to_rent": 6, "bike_racks": 8, "free_racks": 3, "special_racks": 0, "free_special_racks": 3, "maintenance": false, "terminal_type": "smart_sign", "bike_list": [{"number": "840047", "bike_type": 182, "lock_types": ["frame_lock"], "active": true, "state": "ok", "electric_lock": true, "boardcomputer": 7551125755, "pedelec_battery": null, "battery_pack": null}, {"number": "46841", "bike_type": 150, "lock_types": ["frame_lock"], "active": true, "state": "ok", "electric_lock": true, "boardcomputer": 7551089904, "pedelec_battery": null, "battery_pack": null}, {"number": "46434", "bike_type": 150, "lock_types": ["frame_lock"], "active": true, "state": "ok", "electric_lock": true, "boardcomputer": 7551088933, "pedelec_battery": null, "battery_pack": null}, {"number": "47913", "bike_type": 150, "lock_types": ["frame_lock"], "active": true, "state": "ok", "electric_lock": true, "boardcomputer": 7551089013, "pedelec_battery": null, "battery_pack": null}, {"number": "47976", "bike_type": 143, "lock_types": ["frame_lock"], "active": true, "state": "ok", "electric_lock": true, "boardcomputer": 7551107958, "pedelec_battery": 62, "battery_pack": {"percentage": 62}}, {"number": "829013", "bike_type": 15, "lock_types": ["fork_lock"], "active": true, "state": "ok", "electric_lock": true, "boardcomputer": 26331, "pedelec_battery": null, "battery_pack": null}], "bike_numbers": ["840047", "46841", "46434", "47913", "47976", "829013"], "bike_types": {"15": 1, "143": 1, "150": 3, "182": 1}, "place_type": "14", "rack_locks": true}, {"uid": 349450, "lat": 55.858123, "lng": -4.224511, "bike": false, "name": "Bellgrove Railway Station (North) - ELECTRIC ", "address": null, "spot": true, "number": 8439, "booked_bikes": 0, "bikes": 3, "bikes_available_to_rent": 3, "bike_racks": 6, "free_racks": 3, "special_racks": 0, "free_special_racks": 2, "maintenance": true, "terminal_type": "smart_sign", "bike_list": [{"number": "47873", "bike_type": 143, "lock_types": ["frame_lock"], "active": true, "state": "ok", "electric_lock": true, "boardcomputer": 7551113808, "pedelec_battery": 98, "battery_pack": {"percentage": 98}}, {"number": "47850", "bike_type": 143, "lock_types": ["frame_lock"], "active": true, "state": "ok", "electric_lock": true, "boardcomputer": 7551116206, "pedelec_battery": 100, "battery_pack": {"percentage": 100}}, {"number": "47909", "bike_type": 150, "lock_types": ["frame_lock"], "active": true, "state": "ok", "electric_lock": true, "boardcomputer": 7551125335, "pedelec_battery": null, "battery_pack": null}], "bike_numbers": ["47873", "47850", "47909"], "bike_types": {"143": 2, "150": 1}, "place_type": "14", "rack_locks": true}, {"uid": 349451, "lat": 55.855152, "lng": -4.235294, "bike": false, "name": "Barrowlands - ELECTRIC", "address": "Bain Street", "spot": true, "number": 8440, "booked_bikes": 0, "bikes": 4, "bikes_available_to_rent": 4, "bike_racks": 6, "free_racks": 2, "special_racks": 0, "free_special_racks": 0, "maintenance": false, "terminal_type": "smart_sign", "bike_list": [{"number": "81146", "bike_type": 15, "lock_types": ["fork_lock"], "active": true, "state": "ok", "electric_lock": true, "boardcomputer": 22789, "pedelec_battery": null, "battery_pack": null}, {"number": "47737", "bike_type": 15, "lock_types": ["fork_lock"], "active": true, "state": "ok", "electric_lock": true, "boardcomputer": 26434, "pedelec_battery": null, "battery_pack": null}, {"number": "47908", "bike_type": 150, "lock_types": ["frame_lock"], "active": true, "state": "ok", "electric_lock": true, "boardcomputer": 7551116081, "pedelec_battery": null, "battery_pack": null}, {"number": "829083", "bike_type": 15, "lock_types": ["fork_lock"], "active": true, "state": "ok", "electric_lock": true, "boardcomputer": 35215, "pedelec_battery": null, "battery_pack": null}], "bike_numbers": ["81146", "47737", "47908", "829083"], "bike_types": {"15": 3, "150": 1}, "place_type": "14", "rack_locks": true}, {"uid": 349452, "lat": 55.848939, "lng": -4.226823, "bike": false, "name": "Bridgeton", "address": null, "spot": true, "number": 8441, "booked_bikes": 0, "bikes": 11, "bikes_available_to_rent": 11, "bike_racks": 8, "free_racks": 0, "special_racks": 0, "free_special_racks": 0, "maintenance": false, "terminal_type": "smart_sign", "bike_list": [{"number": "47218", "bike_type": 15, "lock_types": ["fork_lock"], "active": true, "state": "ok", "electric_lock": true, "boardcomputer": 27088, "pedelec_battery": null, "battery_pack": null}, {"number": "47143", "bike_type": 15, "lock_types": ["fork_lock"], "active": true, "state": "ok", "electric_lock": true, "boardcomputer": 21482, "pedelec_battery": null, "battery_pack": null}, {"number": "47102", "bike_type": 15, "lock_types": ["fork_lock"], "active": true, "state": "ok", "electric_lock": true, "boardcomputer": 21009, "pedelec_battery": null, "battery_pack": null}, {"number": "47906", "bike_type": 143, "lock_types": ["frame_lock"], "active": true, "state": "ok", "electric_lock": true, "boardcomputer": 7551114736, "pedelec_battery": 92, "battery_pack": {"percentage": 92}}, {"number": "46720", "bike_type": 150, "lock_types": ["frame_lock"], "active": true, "state": "ok", "electric_lock": true, "boardcomputer": 7551134194, "pedelec_battery": null, "battery_pack": null}, {"number": "46634", "bike_type": 150, "lock_types": ["frame_lock"], "active": true, "state": "ok", "electric_lock": true, "boardcomputer": 7551084492, "pedelec_battery": null, "battery_pack": null}, {"number": "46594", "bike_type": 150, "lock_types": ["frame_lock"], "active": true, "state": "ok", "electric_lock": true, "boardcomputer": 7551084595, "pedelec_battery": null, "battery_pack": null}, {"number": "46516", "bike_type": 150, "lock_types": ["frame_lock"], "active": true, "state": "ok", "electric_lock": true, "boardcomputer": 7551086904, "pedelec_battery": null, "battery_pack": null}, {"number": "46501", "bike_type": 150, "lock_types": ["frame_lock"], "active": true, "state": "ok", "electric_lock": true, "boardcomputer": 7551088993, "pedelec_battery": null, "battery_pack": null}, {"number": "46486", "bike_type": 150, "lock_types": ["frame_lock"], "active": true, "state": "ok", "electric_lock": true, "boardcomputer": 7551133403, "pedelec_battery": null, "battery_pack": null}, {"number": "46441", "bike_type": 150, "lock_types": ["frame_lock"], "active": true, "state": "ok", "electric_lock": true, "boardcomputer": 7551115794, "pedelec_battery": null, "battery_pack": null}], "bike_numbers": ["47218", "47143", "47102", "47906", "46720", "46634", "46594", "46516", "46501", "46486", "46441"], "bike_types": {"15": 3, "143": 1, "150": 7}, "place_type": "0", "rack_locks": false}, {"uid": 349453, "lat": 55.850554, "lng": -4.248127, "bike": false, "name": "City of Glasgow College (Riverside Campus) - ELECTRIC", "address": null, "spot": true, "number": 8442, "booked_bikes": 0, "bikes": 4, "bikes_available_to_rent": 4, "bike_racks": 6, "free_racks": 3, "special_racks": 0, "free_special_racks": 3, "maintenance": false, "terminal_type": "smart_sign", "bike_list": [{"number": "47788", "bike_type": 15, "lock_types": ["fork_lock"], "active": true, "state": "ok", "electric_lock": true, "boardcomputer": 29962, "pedelec_battery": null, "battery_pack": null}, {"number": "46945", "bike_type": 150, "lock_types": ["frame_lock"], "active": true, "state": "ok", "electric_lock": true, "boardcomputer": 7551124575, "pedelec_battery": null, "battery_pack": null}, {"number": "47948", "bike_type": 143, "lock_types": ["frame_lock"], "active": true, "state": "ok", "electric_lock": true, "boardcomputer": 7551109051, "pedelec_battery": 100, "battery_pack": {"percentage": 100}}, {"number": "829095", "bike_type": 15, "lock_types": ["fork_lock"], "active": true, "state": "ok", "electric_lock": true, "boardcomputer": 20152, "pedelec_battery": null, "battery_pack": null}], "bike_numbers": ["47788", "46945", "47948", "829095"], "bike_types": {"15": 2, "143": 1, "150": 1}, "place_type": "14", "rack_locks": true}, {"uid": 349454, "lat": 55.85378, "lng": -4.279158, "bike": false, "name": "Paisley Road Toll - ELECTRIC ", "address": null, "spot": true, "number": 8443, "booked_bikes": 0, "bikes": 9, "bikes_available_to_rent": 9, "bike_racks": 6, "free_racks": 1, "special_racks": 0, "free_special_racks": 1, "maintenance": false, "terminal_type": "smart_sign", "bike_list": [{"number": "47008", "bike_type": 15, "lock_types": ["fork_lock"], "active": true, "state": "ok", "electric_lock": true, "boardcomputer": 30382, "pedelec_battery": null, "battery_pack": null}, {"number": "47577", "bike_type": 15, "lock_types": ["fork_lock"], "active": true, "state": "ok", "electric_lock": true, "boardcomputer": 27885, "pedelec_battery": null, "battery_pack": null}, {"number": "46716", "bike_type": 150, "lock_types": ["frame_lock"], "active": true, "state": "ok", "electric_lock": true, "boardcomputer": 7551116294, "pedelec_battery": null, "battery_pack": null}, {"number": "46698", "bike_type": 150, "lock_types": ["frame_lock"], "active": true, "state": "ok", "electric_lock": true, "boardcomputer": 7551088362, "pedelec_battery": null, "battery_pack": null}, {"number": "46608", "bike_type": 150, "lock_types": ["frame_lock"], "active": true, "state": "ok", "electric_lock": true, "boardcomputer": 7551088443, "pedelec_battery": null, "battery_pack": null}, {"number": "46561", "bike_type": 150, "lock_types": ["frame_lock"], "active": true, "state": "ok", "electric_lock": true, "boardcomputer": 7551123842, "pedelec_battery": null, "battery_pack": null}, {"number": "47966", "bike_type": 143, "lock_types": ["frame_lock"], "active": true, "state": "ok", "electric_lock": true, "boardcomputer": 7551109059, "pedelec_battery": 96, "battery_pack": {"percentage": 96}}, {"number": "47964", "bike_type": 143, "lock_types": ["frame_lock"], "active": true, "state": "ok", "electric_lock": true, "boardcomputer": 7551107409, "pedelec_battery": 100, "battery_pack": {"percentage": 100}}, {"number": "47944", "bike_type": 143, "lock_types": ["frame_lock"], "active": true, "state": "ok", "electric_lock": true, "boardcomputer": 7551107807, "pedelec_battery": 100, "battery_pack": {"percentage": 100}}], "bike_numbers": ["47008", "47577", "46716", "46698", "46608", "46561", "47966", "47964", "47944"], "bike_types": {"15": 2, "143": 3, "150": 4}, "place_type": "14", "rack_locks": true}, {"uid": 349455, "lat": 55.85196, "lng": -4.294538, "bike": false, "name": "Cessnock Subway Station - ELECTRIC", "address": null, "spot": true, "number": 8444, "booked_bikes": 0, "bikes": 5, "bikes_available_to_rent": 5, "bike_racks": 6, "free_racks": 2, "special_racks": 0, "free_special_racks": 2, "maintenance": true, "terminal_type": "smart_sign", "bike_list": [{"number": "47495", "bike_type": 15, "lock_types": ["fork_lock"], "active": true, "state": "ok", "electric_lock": true, "boardcomputer": 23122, "pedelec_battery": null, "battery_pack": null}, {"number": "47085", "bike_type": 15, "lock_types": ["fork_lock"], "active": true, "state": "ok", "electric_lock": true, "boardcomputer": 20516, "pedelec_battery": null, "battery_pack": null}, {"number": "81116", "bike_type": 15, "lock_types": ["fork_lock"], "active": true, "state": "ok", "electric_lock": true, "boardcomputer": 27864, "pedelec_battery": null, "battery_pack": null}, {"number": "840008", "bike_type": 182, "lock_types": ["frame_lock"], "active": true, "state": "ok", "electric_lock": true, "boardcomputer": 7551131463, "pedelec_battery": null, "battery_pack": null}, {"number": "46567", "bike_type": 150, "lock_types": ["frame_lock"], "active": true, "state": "ok", "electric_lock": true, "boardcomputer": 7551094691, "pedelec_battery": null, "battery_pack": null}], "bike_numbers": ["47495", "47085", "81116", "840008", "46567"], "bike_types": {"15": 3, "150": 1, "182": 1}, "place_type": "14", "rack_locks": true}, {"uid": 349456, "lat": 55.863, "lng": -4.311378, "bike": false, "name": "Govan Cross", "address": null, "spot": true, "number": 8445, "booked_bikes": 0, "bikes": 9, "bikes_available_to_rent": 9, "bike_racks": 5, "free_racks": 0, "special_racks": 0, "free_special_racks": 0, "maintenance": false, "terminal_type": "smart_sign", "bike_list": [{"number": "47237", "bike_type": 15, "lock_types": ["fork_lock"], "active": true, "state": "ok", "electric_lock": true, "boardcomputer": 26564, "pedelec_battery": null, "battery_pack": null}, {"number": "47867", "bike_type": 143, "lock_types": ["frame_lock"], "active": true, "state": "ok", "electric_lock": true, "boardcomputer": 7551062892, "pedelec_battery": 89, "battery_pack": {"percentage": 89}}, {"number": "46963", "bike_type": 150, "lock_types": ["frame_lock"], "active": true, "state": "ok", "electric_lock": true, "boardcomputer": 7551070747, "pedelec_battery": null, "battery_pack": null}, {"number": "46791", "bike_type": 150, "lock_types": ["frame_lock"], "active": true, "state": "ok", "electric_lock": true, "boardcomputer": 7551089221, "pedelec_battery": null, "battery_pack": null}, {"number": "46723", "bike_type": 150, "lock_types": ["frame_lock"], "active": true, "state": "ok", "electric_lock": true, "boardcomputer": 7551088404, "pedelec_battery": null, "battery_pack": null}, {"number": "46617", "bike_type": 150, "lock_types": ["frame_lock"], "active": true, "state": "ok", "electric_lock": true, "boardcomputer": 7551084583, "pedelec_battery": null, "battery_pack": null}, {"number": "46497", "bike_type": 150, "lock_types": ["frame_lock"], "active": true, "state": "ok", "electric_lock": true, "boardcomputer": 7551086897, "pedelec_battery": null, "battery_pack": null}, {"number": "46489", "bike_type": 150, "lock_types": ["frame_lock"], "active": true, "state": "ok", "electric_lock": true, "boardcomputer": 7551084449, "pedelec_battery": null, "battery_pack": null}, {"number": "46442", "bike_type": 150, "lock_types": ["frame_lock"], "active": true, "state": "ok", "electric_lock": true, "boardcomputer": 7551088407, "pedelec_battery": null, "battery_pack": null}], "bike_numbers": ["47237", "47867", "46963", "46791", "46723", "46617", "46497", "46489", "46442"], "bike_types": {"15": 1, "143": 1, "150": 7}, "place_type": "0", "rack_locks": false}, {"uid": 349458, "lat": 55.843308, "lng": -4.26217, "bike": false, "name": "Eglinton Toll - ELECTRIC", "address": null, "spot": true, "number": 8446, "booked_bikes": 0, "bikes": 5, "bikes_available_to_rent": 5, "bike_racks": 6, "free_racks": 4, "special_racks": 0, "free_special_racks": 4, "maintenance": true, "terminal_type": "smart_sign", "bike_list": [{"number": "46927", "bike_type": 150, "lock_types": ["frame_lock"], "active": true, "state": "ok", "electric_lock": true, "boardcomputer": 7551048326, "pedelec_battery": null, "battery_pack": null}, {"number": "46909", "bike_type": 150, "lock_types": ["frame_lock"], "active": true, "state": "ok", "electric_lock": true, "boardcomputer": 7551114423, "pedelec_battery": null, "battery_pack": null}, {"number": "46793", "bike_type": 150, "lock_types": ["frame_lock"], "active": true, "state": "ok", "electric_lock": true, "boardcomputer": 7551088757, "pedelec_battery": null, "battery_pack": null}, {"number": "46547", "bike_type": 150, "lock_types": ["frame_lock"], "active": true, "state": "ok", "electric_lock": true, "boardcomputer": 7551088561, "pedelec_battery": null, "battery_pack": null}, {"number": "829010", "bike_type": 15, "lock_types": ["fork_lock"], "active": true, "state": "ok", "electric_lock": true, "boardcomputer": 21441, "pedelec_battery": null, "battery_pack": null}], "bike_numbers": ["46927", "46909", "46793", "46547", "829010"], "bike_types": {"15": 1, "150": 4}, "place_type": "14", "rack_locks": true}, {"uid": 349460, "lat": 55.834976, "lng": -4.265485, "bike": false, "name": "Queens Park Railway Station - ELECTRIC", "address": null, "spot": true, "number": 8447, "booked_bikes": 0, "bikes": 5, "bikes_available_to_rent": 5, "bike_racks": 8, "free_racks": 7, "special_racks": 0, "free_special_racks": 7, "maintenance": true, "terminal_type": "smart_sign", "bike_list": [{"number": "46786", "bike_type": 150, "lock_types": ["frame_lock"], "active": true, "state": "ok", "electric_lock": true, "boardcomputer": 7551089184, "pedelec_battery": null, "battery_pack": null}, {"number": "46743", "bike_type": 150, "lock_types": ["frame_lock"], "active": true, "state": "ok", "electric_lock": true, "boardcomputer": 7551087630, "pedelec_battery": null, "battery_pack": null}, {"number": "46458", "bike_type": 150, "lock_types": ["frame_lock"], "active": true, "state": "ok", "electric_lock": true, "boardcomputer": 7551093845, "pedelec_battery": null, "battery_pack": null}, {"number": "829089", "bike_type": 15, "lock_types": ["fork_lock"], "active": true, "state": "ok", "electric_lock": true, "boardcomputer": 25322, "pedelec_battery": null, "battery_pack": null}, {"number": "829017", "bike_type": 15, "lock_types": ["fork_lock"], "active": true, "state": "ok", "electric_lock": true, "boardcomputer": 22403, "pedelec_battery": null, "battery_pack": null}], "bike_numbers": ["46786", "46743", "46458", "829089", "829017"], "bike_types": {"15": 2, "150": 3}, "place_type": "14", "rack_locks": true}, {"uid": 349461, "lat": 55.835042, "lng": -4.272346, "bike": false, "name": "Queens Park West", "address": null, "spot": true, "number": 8448, "booked_bikes": 0, "bikes": 8, "bikes_available_to_rent": 8, "bike_racks": 8, "free_racks": 0, "special_racks": 0, "free_special_racks": 0, "maintenance": false, "terminal_type": "smart_sign", "bike_list": [{"number": "99603", "bike_type": 15, "lock_types": ["fork_lock"], "active": true, "state": "ok", "electric_lock": true, "boardcomputer": 22579, "pedelec_battery": null, "battery_pack": null}, {"number": "47410", "bike_type": 15, "lock_types": ["fork_lock"], "active": true, "state": "ok", "electric_lock": true, "boardcomputer": 29096, "pedelec_battery": null, "battery_pack": null}, {"number": "47137", "bike_type": 15, "lock_types": ["fork_lock"], "active": true, "state": "ok", "electric_lock": true, "boardcomputer": 25895, "pedelec_battery": null, "battery_pack": null}, {"number": "47528", "bike_type": 15, "lock_types": ["fork_lock"], "active": true, "state": "ok", "electric_lock": true, "boardcomputer": 24050, "pedelec_battery": null, "battery_pack": null}, {"number": "46745", "bike_type": 150, "lock_types": ["frame_lock"], "active": true, "state": "ok", "electric_lock": true, "boardcomputer": 7551084398, "pedelec_battery": null, "battery_pack": null}, {"number": "46643", "bike_type": 150, "lock_types": ["frame_lock"], "active": true, "state": "ok", "electric_lock": true, "boardcomputer": 7551086060, "pedelec_battery": null, "battery_pack": null}, {"number": "46586", "bike_type": 150, "lock_types": ["frame_lock"], "active": true, "state": "ok", "electric_lock": true, "boardcomputer": 7551084334, "pedelec_battery": null, "battery_pack": null}, {"number": "46515", "bike_type": 150, "lock_types": ["frame_lock"], "active": true, "state": "ok", "electric_lock": true, "boardcomputer": 7551084640, "pedelec_battery": null, "battery_pack": null}], "bike_numbers": ["99603", "47410", "47137", "47528", "46745", "46643", "46586", "46515"], "bike_types": {"15": 4, "150": 4}, "place_type": "0", "rack_locks": false}, {"uid": 380893, "lat": 55.864993, "lng": -4.252567, "bike": false, "name": "Buchanan Street Bus Station - ELECTRIC", "address": null, "spot": true, "number": 8404, "booked_bikes": 0, "bikes": 1, "bikes_available_to_rent": 1, "bike_racks": 10, "free_racks": 9, "special_racks": 0, "free_special_racks": 4, "maintenance": false, "terminal_type": "smart_sign", "bike_list": [{"number": "46607", "bike_type": 150, "lock_types": ["frame_lock"], "active": true, "state": "ok", "electric_lock": true, "boardcomputer": 7551114210, "pedelec_battery": null, "battery_pack": null}], "bike_numbers": ["46607"], "bike_types": {"150": 1}, "place_type": "14", "rack_locks": true}, {"uid": 733236, "lat": 55.883971, "lng": -4.31046, "bike": false, "name": "Gartnavel General Hospital", "address": null, "spot": true, "number": 8449, "booked_bikes": 0, "bikes": 2, "bikes_available_to_rent": 2, "bike_racks": 6, "free_racks": 4, "special_racks": 0, "free_special_racks": 0, "maintenance": true, "terminal_type": "smart_sign", "bike_list": [{"number": "46897", "bike_type": 150, "lock_types": ["frame_lock"], "active": true, "state": "ok", "electric_lock": true, "boardcomputer": 7551069973, "pedelec_battery": null, "battery_pack": null}, {"number": "47946", "bike_type": 143, "lock_types": ["frame_lock"], "active": true, "state": "ok", "electric_lock": true, "boardcomputer": 7551109052, "pedelec_battery": 0, "battery_pack": {"percentage": 0}}], "bike_numbers": ["46897", "47946"], "bike_types": {"143": 1, "150": 1}, "place_type": "0", "rack_locks": false}, {"uid": 751103, "lat": 55.862672, "lng": -4.341751, "bike": false, "name": "University Hospital, Queen Eliza", "address": null, "spot": true, "number": 8450, "booked_bikes": 0, "bikes": 7, "bikes_available_to_rent": 7, "bike_racks": 8, "free_racks": 1, "special_racks": 0, "free_special_racks": 0, "maintenance": false, "terminal_type": "smart_sign", "bike_list": [{"number": "47159", "bike_type": 15, "lock_types": ["fork_lock"], "active": true, "state": "ok", "electric_lock": true, "boardcomputer": 29629, "pedelec_battery": null, "battery_pack": null}, {"number": "46882", "bike_type": 150, "lock_types": ["frame_lock"], "active": true, "state": "ok", "electric_lock": true, "boardcomputer": 7551115785, "pedelec_battery": null, "battery_pack": null}, {"number": "46709", "bike_type": 150, "lock_types": ["frame_lock"], "active": true, "state": "ok", "electric_lock": true, "boardcomputer": 7551087150, "pedelec_battery": null, "battery_pack": null}, {"number": "46670", "bike_type": 150, "lock_types": ["frame_lock"], "active": true, "state": "ok", "electric_lock": true, "boardcomputer": 7551088331, "pedelec_battery": null, "battery_pack": null}, {"number": "46609", "bike_type": 150, "lock_types": ["frame_lock"], "active": true, "state": "ok", "electric_lock": true, "boardcomputer": 7551088675, "pedelec_battery": null, "battery_pack": null}, {"number": "46519", "bike_type": 150, "lock_types": ["frame_lock"], "active": true, "state": "ok", "electric_lock": true, "boardcomputer": 7551088926, "pedelec_battery": null, "battery_pack": null}, {"number": "46508", "bike_type": 150, "lock_types": ["frame_lock"], "active": true, "state": "ok", "electric_lock": true, "boardcomputer": 7551088870, "pedelec_battery": null, "battery_pack": null}], "bike_numbers": ["47159", "46882", "46709", "46670", "46609", "46519", "46508"], "bike_types": {"15": 1, "150": 6}, "place_type": "0", "rack_locks": false}, {"uid": 3456076, "lat": 55.864563, "lng": -4.270055, "bike": false, "name": "Charing Cross Railway Station", "address": null, "spot": true, "number": 8421, "booked_bikes": 0, "bikes": 1, "bikes_available_to_rent": 1, "bike_racks": 8, "free_racks": 7, "special_racks": 0, "free_special_racks": 0, "maintenance": false, "terminal_type": "smart_sign", "bike_list": [{"number": "46961", "bike_type": 150, "lock_types": ["frame_lock"], "active": true, "state": "ok", "electric_lock": true, "boardcomputer": 7551069063, "pedelec_battery": null, "battery_pack": null}], "bike_numbers": ["46961"], "bike_types": {"150": 1}, "place_type": "0", "rack_locks": false}, {"uid": 3812438, "lat": 55.865222, "lng": -4.286127, "bike": false, "name": "Kelvinhaugh Street / Argyle Street - ELECTRIC", "address": null, "spot": true, "number": 8451, "booked_bikes": 0, "bikes": 2, "bikes_available_to_rent": 2, "bike_racks": 8, "free_racks": 4, "special_racks": 0, "free_special_racks": 4, "maintenance": true, "terminal_type": "smart_sign", "bike_list": [{"number": "46837", "bike_type": 150, "lock_types": ["frame_lock"], "active": true, "state": "ok", "electric_lock": true, "boardcomputer": 7551116027, "pedelec_battery": null, "battery_pack": null}, {"number": "46572", "bike_type": 150, "lock_types": ["frame_lock"], "active": true, "state": "ok", "electric_lock": true, "boardcomputer": 7551093858, "pedelec_battery": null, "battery_pack": null}], "bike_numbers": ["46837", "46572"], "bike_types": {"150": 2}, "place_type": "14", "rack_locks": true}, {"uid": 3812605, "lat": 55.829057, "lng": -4.282675, "bike": false, "name": "Shawlands Shopping Centre (Kilmarnock Road)", "address": null, "spot": true, "number": 8453, "booked_bikes": 0, "bikes": 0, "bikes_available_to_rent": 0, "bike_racks": 8, "free_racks": 8, "special_racks": 0, "free_special_racks": 0, "maintenance": false, "terminal_type": "smart_sign", "bike_list": [], "bike_numbers": [], "bike_types": {}, "place_type": "0", "rack_locks": false}, {"uid": 3812694, "lat": 55.831951, "lng": -4.277989, "bike": false, "name": "Langside Hall - ELECTRIC", "address": "Pollokshaws Road", "spot": true, "number": 8454, "booked_bikes": 0, "bikes": 8, "bikes_available_to_rent": 8, "bike_racks": 8, "free_racks": 2, "special_racks": 0, "free_special_racks": 2, "maintenance": true, "terminal_type": "smart_sign", "bike_list": [{"number": "47880", "bike_type": 143, "lock_types": ["frame_lock"], "active": true, "state": "ok", "electric_lock": true, "boardcomputer": 7551116662, "pedelec_battery": null, "battery_pack": null}, {"number": "47849", "bike_type": 143, "lock_types": ["frame_lock"], "active": true, "state": "ok", "electric_lock": true, "boardcomputer": 7551125344, "pedelec_battery": null, "battery_pack": null}, {"number": "46947", "bike_type": 150, "lock_types": ["frame_lock"], "active": true, "state": "ok", "electric_lock": true, "boardcomputer": 7551123911, "pedelec_battery": null, "battery_pack": null}, {"number": "46566", "bike_type": 150, "lock_types": ["frame_lock"], "active": true, "state": "ok", "electric_lock": true, "boardcomputer": 7551088386, "pedelec_battery": null, "battery_pack": null}, {"number": "829091", "bike_type": 15, "lock_types": ["fork_lock"], "active": true, "state": "ok", "electric_lock": true, "boardcomputer": 40106, "pedelec_battery": null, "battery_pack": null}, {"number": "829090", "bike_type": 15, "lock_types": ["fork_lock"], "active": true, "state": "ok", "electric_lock": true, "boardcomputer": 35409, "pedelec_battery": null, "battery_pack": null}, {"number": "829080", "bike_type": 15, "lock_types": ["fork_lock"], "active": true, "state": "ok", "electric_lock": true, "boardcomputer": 35616, "pedelec_battery": null, "battery_pack": null}, {"number": "829004", "bike_type": 15, "lock_types": ["fork_lock"], "active": true, "state": "ok", "electric_lock": true, "boardcomputer": 25442, "pedelec_battery": null, "battery_pack": null}], "bike_numbers": ["47880", "47849", "46947", "46566", "829091", "829090", "829080", "829004"], "bike_types": {"15": 4, "143": 2, "150": 2}, "place_type": "14", "rack_locks": true}, {"uid": 3812713, "lat": 55.827371, "lng": -4.29567, "bike": false, "name": "Shawlands Railway Station - ELECTRIC", "address": null, "spot": true, "number": 8455, "booked_bikes": 0, "bikes": 13, "bikes_available_to_rent": 13, "bike_racks": 8, "free_racks": 3, "special_racks": 0, "free_special_racks": 3, "maintenance": true, "terminal_type": "smart_sign", "bike_list": [{"number": "840001", "bike_type": 182, "lock_types": ["frame_lock"], "active": true, "state": "ok", "electric_lock": true, "boardcomputer": 7551125497, "pedelec_battery": null, "battery_pack": null}, {"number": "46998", "bike_type": 150, "lock_types": ["frame_lock"], "active": true, "state": "ok", "electric_lock": true, "boardcomputer": 7551068540, "pedelec_battery": null, "battery_pack": null}, {"number": "46958", "bike_type": 150, "lock_types": ["frame_lock"], "active": true, "state": "ok", "electric_lock": true, "boardcomputer": 7551116311, "pedelec_battery": null, "battery_pack": null}, {"number": "46861", "bike_type": 150, "lock_types": ["frame_lock"], "active": true, "state": "ok", "electric_lock": true, "boardcomputer": 7551114013, "pedelec_battery": null, "battery_pack": null}, {"number": "46751", "bike_type": 150, "lock_types": ["frame_lock"], "active": true, "state": "ok", "electric_lock": true, "boardcomputer": 7551089070, "pedelec_battery": null, "battery_pack": null}, {"number": "46671", "bike_type": 150, "lock_types": ["frame_lock"], "active": true, "state": "ok", "electric_lock": true, "boardcomputer": 7551077501, "pedelec_battery": null, "battery_pack": null}, {"number": "46540", "bike_type": 150, "lock_types": ["frame_lock"], "active": true, "state": "ok", "electric_lock": true, "boardcomputer": 7551088285, "pedelec_battery": null, "battery_pack": null}, {"number": "46505", "bike_type": 150, "lock_types": ["frame_lock"], "active": true, "state": "ok", "electric_lock": true, "boardcomputer": 7551135592, "pedelec_battery": null, "battery_pack": null}, {"number": "46456", "bike_type": 150, "lock_types": ["frame_lock"], "active": true, "state": "ok", "electric_lock": true, "boardcomputer": 7551094762, "pedelec_battery": null, "battery_pack": null}, {"number": "46415", "bike_type": 150, "lock_types": ["frame_lock"], "active": true, "state": "ok", "electric_lock": true, "boardcomputer": 7551094841, "pedelec_battery": null, "battery_pack": null}, {"number": "46407", "bike_type": 150, "lock_types": ["frame_lock"], "active": true, "state": "ok", "electric_lock": true, "boardcomputer": 7551084535, "pedelec_battery": null, "battery_pack": null}, {"number": "829085", "bike_type": 15, "lock_types": ["fork_lock"], "active": true, "state": "ok", "electric_lock": true, "boardcomputer": 20891, "pedelec_battery": null, "battery_pack": null}, {"number": "829018", "bike_type": 15, "lock_types": ["fork_lock"], "active": true, "state": "ok", "electric_lock": true, "boardcomputer": 20477, "pedelec_battery": null, "battery_pack": null}], "bike_numbers": ["840001", "46998", "46958", "46861", "46751", "46671", "46540", "46505", "46456", "46415", "46407", "829085", "829018"], "bike_types": {"15": 2, "150": 10, "182": 1}, "place_type": "14", "rack_locks": true}, {"uid": 3812770, "lat": 55.842561, "lng": -4.217704, "bike": false, "name": "Dalmarnock Railway Station - ELECTRIC", "address": null, "spot": true, "number": 8456, "booked_bikes": 0, "bikes": 6, "bikes_available_to_rent": 6, "bike_racks": 8, "free_racks": 4, "special_racks": 0, "free_special_racks": 4, "maintenance": false, "terminal_type": "smart_sign", "bike_list": [{"number": "47782", "bike_type": 15, "lock_types": ["fork_lock"], "active": true, "state": "ok", "electric_lock": true, "boardcomputer": 28073, "pedelec_battery": null, "battery_pack": null}, {"number": "46908", "bike_type": 150, "lock_types": ["frame_lock"], "active": true, "state": "ok", "electric_lock": true, "boardcomputer": 7551114048, "pedelec_battery": null, "battery_pack": null}, {"number": "46585", "bike_type": 150, "lock_types": ["frame_lock"], "active": true, "state": "ok", "electric_lock": true, "boardcomputer": 7551126079, "pedelec_battery": null, "battery_pack": null}, {"number": "46538", "bike_type": 150, "lock_types": ["frame_lock"], "active": true, "state": "ok", "electric_lock": true, "boardcomputer": 7551088563, "pedelec_battery": null, "battery_pack": null}, {"number": "46449", "bike_type": 150, "lock_types": ["frame_lock"], "active": true, "state": "ok", "electric_lock": true, "boardcomputer": 7551092947, "pedelec_battery": null, "battery_pack": null}, {"number": "46421", "bike_type": 150, "lock_types": ["frame_lock"], "active": true, "state": "ok", "electric_lock": true, "boardcomputer": 7551115789, "pedelec_battery": null, "battery_pack": null}], "bike_numbers": ["47782", "46908", "46585", "46538", "46449", "46421"], "bike_types": {"15": 1, "150": 5}, "place_type": "14", "rack_locks": true}, {"uid": 3812776, "lat": 55.863128, "lng": -4.210282, "bike": false, "name": "Alexandra Park (south entrance) Alexandra Parade Railway Station", "address": null, "spot": true, "number": 8457, "booked_bikes": 0, "bikes": 7, "bikes_available_to_rent": 7, "bike_racks": 8, "free_racks": 1, "special_racks": 0, "free_special_racks": 0, "maintenance": false, "terminal_type": "smart_sign", "bike_list": [{"number": "47183", "bike_type": 15, "lock_types": ["fork_lock"], "active": true, "state": "ok", "electric_lock": true, "boardcomputer": 21497, "pedelec_battery": null, "battery_pack": null}, {"number": "47547", "bike_type": 15, "lock_types": ["fork_lock"], "active": true, "state": "ok", "electric_lock": true, "boardcomputer": 27060, "pedelec_battery": null, "battery_pack": null}, {"number": "47575", "bike_type": 15, "lock_types": ["fork_lock"], "active": true, "state": "ok", "electric_lock": true, "boardcomputer": 22484, "pedelec_battery": null, "battery_pack": null}, {"number": "47875", "bike_type": 143, "lock_types": ["frame_lock"], "active": true, "state": "ok", "electric_lock": true, "boardcomputer": 7551069942, "pedelec_battery": 63, "battery_pack": {"percentage": 63}}, {"number": "46772", "bike_type": 150, "lock_types": ["frame_lock"], "active": true, "state": "ok", "electric_lock": true, "boardcomputer": 7551088697, "pedelec_battery": null, "battery_pack": null}, {"number": "46436", "bike_type": 150, "lock_types": ["frame_lock"], "active": true, "state": "ok", "electric_lock": true, "boardcomputer": 7551088930, "pedelec_battery": null, "battery_pack": null}, {"number": "829005", "bike_type": 15, "lock_types": ["fork_lock"], "active": true, "state": "ok", "electric_lock": true, "boardcomputer": 26546, "pedelec_battery": null, "battery_pack": null}], "bike_numbers": ["47183", "47547", "47575", "47875", "46772", "46436", "829005"], "bike_types": {"15": 4, "143": 1, "150": 2}, "place_type": "0", "rack_locks": false}, {"uid": 3812792, "lat": 55.858222, "lng": -4.213473, "bike": false, "name": "Duke Street Railway Station", "address": null, "spot": true, "number": 8458, "booked_bikes": 0, "bikes": 4, "bikes_available_to_rent": 4, "bike_racks": 8, "free_racks": 4, "special_racks": 0, "free_special_racks": 0, "maintenance": false, "terminal_type": "smart_sign", "bike_list": [{"number": "47340", "bike_type": 15, "lock_types": ["fork_lock"], "active": true, "state": "ok", "electric_lock": true, "boardcomputer": 27620, "pedelec_battery": null, "battery_pack": null}, {"number": "47167", "bike_type": 15, "lock_types": ["fork_lock"], "active": true, "state": "ok", "electric_lock": true, "boardcomputer": 30414, "pedelec_battery": null, "battery_pack": null}, {"number": "81169", "bike_type": 15, "lock_types": ["fork_lock"], "active": true, "state": "ok", "electric_lock": true, "boardcomputer": 27745, "pedelec_battery": null, "battery_pack": null}, {"number": "47815", "bike_type": 15, "lock_types": ["fork_lock"], "active": true, "state": "ok", "electric_lock": true, "boardcomputer": 29288, "pedelec_battery": null, "battery_pack": null}], "bike_numbers": ["47340", "47167", "81169", "47815"], "bike_types": {"15": 4}, "place_type": "0", "rack_locks": false}, {"uid": 3812875, "lat": 55.870992, "lng": -4.260426, "bike": false, "name": "Speirs Wharf - ELECTRIC", "address": null, "spot": true, "number": 8459, "booked_bikes": 0, "bikes": 0, "bikes_available_to_rent": 0, "bike_racks": 7, "free_racks": 7, "special_racks": 0, "free_special_racks": 4, "maintenance": false, "terminal_type": "smart_sign", "bike_list": [], "bike_numbers": [], "bike_types": {}, "place_type": "14", "rack_locks": true}, {"uid": 3812886, "lat": 55.853194, "lng": -4.246983, "bike": false, "name": "Glasgow Green - Saltmarket / Clyde Place - ELECTRIC", "address": null, "spot": true, "number": 8460, "booked_bikes": 0, "bikes": 3, "bikes_available_to_rent": 3, "bike_racks": 8, "free_racks": 8, "special_racks": 0, "free_special_racks": 8, "maintenance": false, "terminal_type": "smart_sign", "bike_list": [{"number": "47291", "bike_type": 15, "lock_types": ["fork_lock"], "active": true, "state": "ok", "electric_lock": true, "boardcomputer": 22010, "pedelec_battery": null, "battery_pack": null}, {"number": "46895", "bike_type": 150, "lock_types": ["frame_lock"], "active": true, "state": "ok", "electric_lock": true, "boardcomputer": 7551135590, "pedelec_battery": null, "battery_pack": null}, {"number": "46833", "bike_type": 150, "lock_types": ["frame_lock"], "active": true, "state": "ok", "electric_lock": true, "boardcomputer": 7551088708, "pedelec_battery": null, "battery_pack": null}], "bike_numbers": ["47291", "46895", "46833"], "bike_types": {"15": 1, "150": 2}, "place_type": "14", "rack_locks": true}, {"uid": 6269590, "lat": 55.855185, "lng": -4.273478, "bike": false, "name": "Springfield Quay 1", "address": null, "spot": true, "number": 8461, "booked_bikes": 0, "bikes": 6, "bikes_available_to_rent": 6, "bike_racks": 6, "free_racks": 0, "special_racks": 0, "free_special_racks": 0, "maintenance": false, "terminal_type": "smart_sign", "bike_list": [{"number": "47108", "bike_type": 15, "lock_types": ["fork_lock"], "active": true, "state": "ok", "electric_lock": false, "boardcomputer": 29120, "pedelec_battery": null, "battery_pack": null}, {"number": "47807", "bike_type": 15, "lock_types": ["fork_lock"], "active": true, "state": "ok", "electric_lock": true, "boardcomputer": 28241, "pedelec_battery": null, "battery_pack": null}, {"number": "46984", "bike_type": 150, "lock_types": ["frame_lock"], "active": true, "state": "ok", "electric_lock": true, "boardcomputer": 7551068875, "pedelec_battery": null, "battery_pack": null}, {"number": "46824", "bike_type": 150, "lock_types": ["frame_lock"], "active": true, "state": "ok", "electric_lock": true, "boardcomputer": 7551089144, "pedelec_battery": null, "battery_pack": null}, {"number": "46569", "bike_type": 150, "lock_types": ["frame_lock"], "active": true, "state": "ok", "electric_lock": true, "boardcomputer": 7551088539, "pedelec_battery": null, "battery_pack": null}, {"number": "46543", "bike_type": 150, "lock_types": ["frame_lock"], "active": true, "state": "ok", "electric_lock": true, "boardcomputer": 7551088330, "pedelec_battery": null, "battery_pack": null}], "bike_numbers": ["47108", "47807", "46984", "46824", "46569", "46543"], "bike_types": {"15": 2, "150": 4}, "place_type": "0", "rack_locks": false}, {"uid": 6269603, "lat": 55.854391, "lng": -4.274764, "bike": false, "name": "Springfield Quay 2", "address": null, "spot": true, "number": 8462, "booked_bikes": 0, "bikes": 10, "bikes_available_to_rent": 10, "bike_racks": 6, "free_racks": 0, "special_racks": 0, "free_special_racks": 0, "maintenance": false, "terminal_type": "smart_sign", "bike_list": [{"number": "47498", "bike_type": 15, "lock_types": ["fork_lock"], "active": true, "state": "ok", "electric_lock": true, "boardcomputer": 23686, "pedelec_battery": null, "battery_pack": null}, {"number": "47117", "bike_type": 15, "lock_types": ["fork_lock"], "active": true, "state": "ok", "electric_lock": true, "boardcomputer": 29235, "pedelec_battery": null, "battery_pack": null}, {"number": "47097", "bike_type": 15, "lock_types": ["fork_lock"], "active": true, "state": "ok", "electric_lock": true, "boardcomputer": 20460, "pedelec_battery": null, "battery_pack": null}, {"number": "46968", "bike_type": 150, "lock_types": ["frame_lock"], "active": true, "state": "ok", "electric_lock": true, "boardcomputer": 7551116625, "pedelec_battery": null, "battery_pack": null}, {"number": "46960", "bike_type": 150, "lock_types": ["frame_lock"], "active": true, "state": "ok", "electric_lock": true, "boardcomputer": 7551073273, "pedelec_battery": null, "battery_pack": null}, {"number": "46890", "bike_type": 150, "lock_types": ["frame_lock"], "active": true, "state": "ok", "electric_lock": true, "boardcomputer": 7551132607, "pedelec_battery": null, "battery_pack": null}, {"number": "46852", "bike_type": 150, "lock_types": ["frame_lock"], "active": true, "state": "ok", "electric_lock": true, "boardcomputer": 7551113841, "pedelec_battery": null, "battery_pack": null}, {"number": "46840", "bike_type": 150, "lock_types": ["frame_lock"], "active": true, "state": "ok", "electric_lock": true, "boardcomputer": 7551089218, "pedelec_battery": null, "battery_pack": null}, {"number": "46759", "bike_type": 150, "lock_types": ["frame_lock"], "active": true, "state": "ok", "electric_lock": true, "boardcomputer": 7551143879, "pedelec_battery": null, "battery_pack": null}, {"number": "46754", "bike_type": 150, "lock_types": ["frame_lock"], "active": true, "state": "ok", "electric_lock": true, "boardcomputer": 7551088492, "pedelec_battery": null, "battery_pack": null}], "bike_numbers": ["47498", "47117", "47097", "46968", "46960", "46890", "46852", "46840", "46759", "46754"], "bike_types": {"15": 3, "150": 7}, "place_type": "0", "rack_locks": false}, {"uid": 6269618, "lat": 55.865291, "lng": -4.261756, "bike": false, "name": "Sauchiehall Street", "address": null, "spot": true, "number": 8463, "booked_bikes": 0, "bikes": 3, "bikes_available_to_rent": 3, "bike_racks": 7, "free_racks": 4, "special_racks": 0, "free_special_racks": 0, "maintenance": false, "terminal_type": "smart_sign", "bike_list": [{"number": "47318", "bike_type": 15, "lock_types": ["fork_lock"], "active": true, "state": "ok", "electric_lock": true, "boardcomputer": 29107, "pedelec_battery": null, "battery_pack": null}, {"number": "47642", "bike_type": 15, "lock_types": ["fork_lock"], "active": true, "state": "ok", "electric_lock": true, "boardcomputer": 29501, "pedelec_battery": null, "battery_pack": null}, {"number": "46737", "bike_type": 150, "lock_types": ["frame_lock"], "active": true, "state": "ok", "electric_lock": true, "boardcomputer": 7551088596, "pedelec_battery": null, "battery_pack": null}], "bike_numbers": ["47318", "47642", "46737"], "bike_types": {"15": 2, "150": 1}, "place_type": "0", "rack_locks": false}, {"uid": 6269626, "lat": 55.875061, "lng": -4.270678, "bike": false, "name": "Woodside (North) - ELECTRIC", "address": null, "spot": true, "number": 8465, "booked_bikes": 0, "bikes": 7, "bikes_available_to_rent": 7, "bike_racks": 8, "free_racks": 1, "special_racks": 0, "free_special_racks": 1, "maintenance": false, "terminal_type": "smart_sign", "bike_list": [{"number": "47405", "bike_type": 15, "lock_types": ["fork_lock"], "active": true, "state": "ok", "electric_lock": true, "boardcomputer": 28174, "pedelec_battery": null, "battery_pack": null}, {"number": "840056", "bike_type": 143, "lock_types": ["frame_lock"], "active": true, "state": "ok", "electric_lock": true, "boardcomputer": 7551051147, "pedelec_battery": 100, "battery_pack": {"percentage": 100}}, {"number": "46956", "bike_type": 150, "lock_types": ["frame_lock"], "active": true, "state": "ok", "electric_lock": true, "boardcomputer": 7551068723, "pedelec_battery": null, "battery_pack": null}, {"number": "46742", "bike_type": 150, "lock_types": ["frame_lock"], "active": true, "state": "ok", "electric_lock": true, "boardcomputer": 7551088262, "pedelec_battery": null, "battery_pack": null}, {"number": "47927", "bike_type": 150, "lock_types": ["frame_lock"], "active": true, "state": "ok", "electric_lock": true, "boardcomputer": 7551089014, "pedelec_battery": null, "battery_pack": null}, {"number": "47954", "bike_type": 143, "lock_types": ["frame_lock"], "active": true, "state": "ok", "electric_lock": true, "boardcomputer": 7551111800, "pedelec_battery": 97, "battery_pack": {"percentage": 97}}, {"number": "47938", "bike_type": 143, "lock_types": ["frame_lock"], "active": true, "state": "ok", "electric_lock": true, "boardcomputer": 7551108241, "pedelec_battery": 75, "battery_pack": {"percentage": 75}}], "bike_numbers": ["47405", "840056", "46956", "46742", "47927", "47954", "47938"], "bike_types": {"15": 1, "143": 3, "150": 3}, "place_type": "14", "rack_locks": true}, {"uid": 6269629, "lat": 55.827395, "lng": -4.265319, "bike": false, "name": "Battlefield - ELECTRIC", "address": null, "spot": true, "number": 8466, "booked_bikes": 0, "bikes": 6, "bikes_available_to_rent": 6, "bike_racks": 10, "free_racks": 4, "special_racks": 0, "free_special_racks": 0, "maintenance": false, "terminal_type": "smart_sign", "bike_list": [{"number": "47876", "bike_type": 143, "lock_types": ["frame_lock", "rack_adapter"], "active": true, "state": "ok", "electric_lock": true, "boardcomputer": 7551025017, "pedelec_battery": 97, "battery_pack": {"percentage": 97}}, {"number": "47872", "bike_type": 143, "lock_types": ["frame_lock"], "active": true, "state": "ok", "electric_lock": true, "boardcomputer": 7551116541, "pedelec_battery": 95, "battery_pack": {"percentage": 95}}, {"number": "47856", "bike_type": 143, "lock_types": ["frame_lock"], "active": true, "state": "ok", "electric_lock": true, "boardcomputer": 7551131277, "pedelec_battery": 0, "battery_pack": {"percentage": 0}}, {"number": "825901", "bike_type": 143, "lock_types": ["frame_lock"], "active": true, "state": "ok", "electric_lock": true, "boardcomputer": 7551087883, "pedelec_battery": null, "battery_pack": null}, {"number": "47974", "bike_type": 143, "lock_types": ["frame_lock"], "active": true, "state": "ok", "electric_lock": true, "boardcomputer": 7551108742, "pedelec_battery": 100, "battery_pack": {"percentage": 100}}, {"number": "829092", "bike_type": 15, "lock_types": ["fork_lock"], "active": true, "state": "ok", "electric_lock": true, "boardcomputer": 26313, "pedelec_battery": null, "battery_pack": null}], "bike_numbers": ["47876", "47872", "47856", "825901", "47974", "829092"], "bike_types": {"15": 1, "143": 5}, "place_type": "14", "rack_locks": true}, {"uid": 6269636, "lat": 55.827282, "lng": -4.259255, "bike": false, "name": "Mount Florida Railway Station", "address": null, "spot": true, "number": 8467, "booked_bikes": 0, "bikes": 8, "bikes_available_to_rent": 8, "bike_racks": 0, "free_racks": 0, "special_racks": 0, "free_special_racks": 0, "maintenance": false, "terminal_type": "smart_sign", "bike_list": [{"number": "47783", "bike_type": 15, "lock_types": ["fork_lock"], "active": true, "state": "ok", "electric_lock": true, "boardcomputer": 27809, "pedelec_battery": null, "battery_pack": null}, {"number": "47768", "bike_type": 15, "lock_types": ["fork_lock"], "active": true, "state": "ok", "electric_lock": true, "boardcomputer": 29783, "pedelec_battery": null, "battery_pack": null}, {"number": "46922", "bike_type": 150, "lock_types": ["frame_lock"], "active": true, "state": "ok", "electric_lock": true, "boardcomputer": 7551070194, "pedelec_battery": null, "battery_pack": null}, {"number": "46871", "bike_type": 150, "lock_types": ["frame_lock"], "active": true, "state": "ok", "electric_lock": true, "boardcomputer": 7551127075, "pedelec_battery": null, "battery_pack": null}, {"number": "46686", "bike_type": 150, "lock_types": ["frame_lock"], "active": true, "state": "ok", "electric_lock": true, "boardcomputer": 7551088660, "pedelec_battery": null, "battery_pack": null}, {"number": "46655", "bike_type": 150, "lock_types": ["frame_lock"], "active": true, "state": "ok", "electric_lock": true, "boardcomputer": 7551088238, "pedelec_battery": null, "battery_pack": null}, {"number": "46648", "bike_type": 150, "lock_types": ["frame_lock"], "active": true, "state": "ok", "electric_lock": true, "boardcomputer": 7551094767, "pedelec_battery": null, "battery_pack": null}, {"number": "46440", "bike_type": 150, "lock_types": ["frame_lock"], "active": true, "state": "ok", "electric_lock": true, "boardcomputer": 7551088556, "pedelec_battery": null, "battery_pack": null}], "bike_numbers": ["47783", "47768", "46922", "46871", "46686", "46655", "46648", "46440"], "bike_types": {"15": 2, "150": 6}, "place_type": "0", "rack_locks": false}, {"uid": 6269637, "lat": 55.864472, "lng": -4.223208, "bike": false, "name": "Alexandra Parade (West) - ELECTRIC", "address": null, "spot": true, "number": 8468, "booked_bikes": 0, "bikes": 1, "bikes_available_to_rent": 1, "bike_racks": 8, "free_racks": 7, "special_racks": 0, "free_special_racks": 4, "maintenance": false, "terminal_type": "smart_sign", "bike_list": [{"number": "47949", "bike_type": 143, "lock_types": ["frame_lock"], "active": true, "state": "ok", "electric_lock": true, "boardcomputer": 7551107372, "pedelec_battery": 97, "battery_pack": {"percentage": 97}}], "bike_numbers": ["47949"], "bike_types": {"143": 1}, "place_type": "14", "rack_locks": true}, {"uid": 6269638, "lat": 55.877822, "lng": -4.254817, "bike": false, "name": "Port Dundas", "address": null, "spot": true, "number": 8469, "booked_bikes": 0, "bikes": 6, "bikes_available_to_rent": 6, "bike_racks": 8, "free_racks": 2, "special_racks": 0, "free_special_racks": 0, "maintenance": false, "terminal_type": "smart_sign", "bike_list": [{"number": "47160", "bike_type": 15, "lock_types": ["fork_lock"], "active": true, "state": "ok", "electric_lock": true, "boardcomputer": 21921, "pedelec_battery": null, "battery_pack": null}, {"number": "47540", "bike_type": 15, "lock_types": ["fork_lock"], "active": true, "state": "ok", "electric_lock": true, "boardcomputer": 21843, "pedelec_battery": null, "battery_pack": null}, {"number": "46513", "bike_type": 150, "lock_types": ["frame_lock"], "active": true, "state": "ok", "electric_lock": true, "boardcomputer": 7551071730, "pedelec_battery": null, "battery_pack": null}, {"number": "46423", "bike_type": 150, "lock_types": ["frame_lock"], "active": true, "state": "ok", "electric_lock": true, "boardcomputer": 7551088719, "pedelec_battery": null, "battery_pack": null}, {"number": "829022", "bike_type": 15, "lock_types": ["fork_lock"], "active": true, "state": "ok", "electric_lock": true, "boardcomputer": 20148, "pedelec_battery": null, "battery_pack": null}, {"number": "829020", "bike_type": 15, "lock_types": ["fork_lock"], "active": true, "state": "ok", "electric_lock": true, "boardcomputer": 27790, "pedelec_battery": null, "battery_pack": null}], "bike_numbers": ["47160", "47540", "46513", "46423", "829022", "829020"], "bike_types": {"15": 4, "150": 2}, "place_type": "0", "rack_locks": false}, {"uid": 6270126, "lat": 55.878787, "lng": -4.26877, "bike": false, "name": "Firhill Road - ELECTRIC", "address": null, "spot": true, "number": 8464, "booked_bikes": 0, "bikes": 2, "bikes_available_to_rent": 2, "bike_racks": 7, "free_racks": 5, "special_racks": 0, "free_special_racks": 4, "maintenance": false, "terminal_type": "smart_sign", "bike_list": [{"number": "829024", "bike_type": 15, "lock_types": ["fork_lock"], "active": true, "state": "ok", "electric_lock": true, "boardcomputer": 20985, "pedelec_battery": null, "battery_pack": null}, {"number": "829001", "bike_type": 15, "lock_types": ["fork_lock"], "active": true, "state": "ok", "electric_lock": true, "boardcomputer": 21190, "pedelec_battery": null, "battery_pack": null}], "bike_numbers": ["829024", "829001"], "bike_types": {"15": 2}, "place_type": "14", "rack_locks": true}, {"uid": 7145152, "lat": 55.845807, "lng": -4.275232, "bike": false, "name": "Shields Road", "address": "14 St Andrews Crescent G415SH", "spot": true, "number": 8403, "booked_bikes": 0, "bikes": 15, "bikes_available_to_rent": 15, "bike_racks": 8, "free_racks": 0, "special_racks": 0, "free_special_racks": 0, "maintenance": false, "terminal_type": "smart_sign", "bike_list": [{"number": "47436", "bike_type": 15, "lock_types": ["fork_lock"], "active": true, "state": "ok", "electric_lock": true, "boardcomputer": 21673, "pedelec_battery": null, "battery_pack": null}, {"number": "47019", "bike_type": 15, "lock_types": ["fork_lock"], "active": true, "state": "ok", "electric_lock": true, "boardcomputer": 25884, "pedelec_battery": null, "battery_pack": null}, {"number": "81140", "bike_type": 15, "lock_types": ["fork_lock"], "active": true, "state": "ok", "electric_lock": true, "boardcomputer": 23629, "pedelec_battery": null, "battery_pack": null}, {"number": "47627", "bike_type": 15, "lock_types": ["fork_lock"], "active": true, "state": "ok", "electric_lock": true, "boardcomputer": 30025, "pedelec_battery": null, "battery_pack": null}, {"number": "47615", "bike_type": 15, "lock_types": ["fork_lock"], "active": true, "state": "ok", "electric_lock": true, "boardcomputer": 28273, "pedelec_battery": null, "battery_pack": null}, {"number": "47611", "bike_type": 15, "lock_types": ["fork_lock"], "active": true, "state": "ok", "electric_lock": true, "boardcomputer": 30160, "pedelec_battery": null, "battery_pack": null}, {"number": "47600", "bike_type": 15, "lock_types": ["fork_lock"], "active": true, "state": "ok", "electric_lock": true, "boardcomputer": 24415, "pedelec_battery": null, "battery_pack": null}, {"number": "825565", "bike_type": 143, "lock_types": ["frame_lock"], "active": true, "state": "ok", "electric_lock": true, "boardcomputer": 7551059111, "pedelec_battery": 59, "battery_pack": {"percentage": 59}}, {"number": "46948", "bike_type": 150, "lock_types": ["frame_lock"], "active": true, "state": "ok", "electric_lock": true, "boardcomputer": 7551116648, "pedelec_battery": null, "battery_pack": null}, {"number": "46913", "bike_type": 150, "lock_types": ["frame_lock"], "active": true, "state": "ok", "electric_lock": true, "boardcomputer": 7551084329, "pedelec_battery": null, "battery_pack": null}, {"number": "46883", "bike_type": 150, "lock_types": ["frame_lock"], "active": true, "state": "ok", "electric_lock": true, "boardcomputer": 7551089547, "pedelec_battery": null, "battery_pack": null}, {"number": "46825", "bike_type": 150, "lock_types": ["frame_lock"], "active": true, "state": "ok", "electric_lock": true, "boardcomputer": 7551116252, "pedelec_battery": null, "battery_pack": null}, {"number": "46696", "bike_type": 150, "lock_types": ["frame_lock"], "active": true, "state": "ok", "electric_lock": true, "boardcomputer": 7551086895, "pedelec_battery": null, "battery_pack": null}, {"number": "46554", "bike_type": 150, "lock_types": ["frame_lock"], "active": true, "state": "ok", "electric_lock": true, "boardcomputer": 7551088886, "pedelec_battery": null, "battery_pack": null}, {"number": "47923", "bike_type": 150, "lock_types": ["frame_lock"], "active": true, "state": "ok", "electric_lock": true, "boardcomputer": 7551089142, "pedelec_battery": null, "battery_pack": null}], "bike_numbers": ["47436", "47019", "81140", "47627", "47615", "47611", "47600", "825565", "46948", "46913", "46883", "46825", "46696", "46554", "47923"], "bike_types": {"15": 7, "143": 1, "150": 7}, "place_type": "14", "rack_locks": true}, {"uid": 19164571, "lat": 55.860776, "lng": -4.258597, "bike": false, "name": "Central Station - ELECTRIC", "address": null, "spot": true, "number": 8401, "booked_bikes": 0, "bikes": 20, "bikes_available_to_rent": 20, "bike_racks": 10, "free_racks": 3, "special_racks": 0, "free_special_racks": 3, "maintenance": false, "terminal_type": "smart_sign", "bike_list": [{"number": "47253", "bike_type": 15, "lock_types": ["fork_lock"], "active": true, "state": "ok", "electric_lock": true, "boardcomputer": 28272, "pedelec_battery": null, "battery_pack": null}, {"number": "825602", "bike_type": 143, "lock_types": ["frame_lock"], "active": true, "state": "ok", "electric_lock": true, "boardcomputer": 7551133126, "pedelec_battery": null, "battery_pack": null}, {"number": "46996", "bike_type": 150, "lock_types": ["frame_lock"], "active": true, "state": "ok", "electric_lock": true, "boardcomputer": 7551124599, "pedelec_battery": null, "battery_pack": null}, {"number": "46985", "bike_type": 150, "lock_types": ["frame_lock"], "active": true, "state": "ok", "electric_lock": true, "boardcomputer": 7551135063, "pedelec_battery": null, "battery_pack": null}, {"number": "46983", "bike_type": 150, "lock_types": ["frame_lock"], "active": true, "state": "ok", "electric_lock": true, "boardcomputer": 7551125757, "pedelec_battery": null, "battery_pack": null}, {"number": "46980", "bike_type": 150, "lock_types": ["frame_lock"], "active": true, "state": "ok", "electric_lock": true, "boardcomputer": 7551071734, "pedelec_battery": null, "battery_pack": null}, {"number": "46872", "bike_type": 150, "lock_types": ["frame_lock"], "active": true, "state": "ok", "electric_lock": true, "boardcomputer": 7551069903, "pedelec_battery": null, "battery_pack": null}, {"number": "46768", "bike_type": 150, "lock_types": ["frame_lock"], "active": true, "state": "ok", "electric_lock": true, "boardcomputer": 7551088620, "pedelec_battery": null, "battery_pack": null}, {"number": "46765", "bike_type": 150, "lock_types": ["frame_lock"], "active": true, "state": "ok", "electric_lock": true, "boardcomputer": 7551088696, "pedelec_battery": null, "battery_pack": null}, {"number": "46695", "bike_type": 150, "lock_types": ["frame_lock"], "active": true, "state": "ok", "electric_lock": true, "boardcomputer": 7551084464, "pedelec_battery": null, "battery_pack": null}, {"number": "46694", "bike_type": 150, "lock_types": ["frame_lock"], "active": true, "state": "ok", "electric_lock": true, "boardcomputer": 7551084925, "pedelec_battery": null, "battery_pack": null}, {"number": "46685", "bike_type": 150, "lock_types": ["frame_lock"], "active": true, "state": "ok", "electric_lock": true, "boardcomputer": 7551088716, "pedelec_battery": null, "battery_pack": null}, {"number": "46628", "bike_type": 150, "lock_types": ["frame_lock"], "active": true, "state": "ok", "electric_lock": true, "boardcomputer": 7551088452, "pedelec_battery": null, "battery_pack": null}, {"number": "46576", "bike_type": 150, "lock_types": ["frame_lock"], "active": true, "state": "ok", "electric_lock": true, "boardcomputer": 7551088690, "pedelec_battery": null, "battery_pack": null}, {"number": "46555", "bike_type": 150, "lock_types": ["frame_lock"], "active": true, "state": "ok", "electric_lock": true, "boardcomputer": 7551088838, "pedelec_battery": null, "battery_pack": null}, {"number": "46527", "bike_type": 150, "lock_types": ["frame_lock"], "active": true, "state": "ok", "electric_lock": true, "boardcomputer": 7551088344, "pedelec_battery": null, "battery_pack": null}, {"number": "46482", "bike_type": 150, "lock_types": ["frame_lock"], "active": true, "state": "ok", "electric_lock": true, "boardcomputer": 7551126098, "pedelec_battery": null, "battery_pack": null}, {"number": "46439", "bike_type": 150, "lock_types": ["frame_lock"], "active": true, "state": "ok", "electric_lock": true, "boardcomputer": 7551088406, "pedelec_battery": null, "battery_pack": null}, {"number": "46430", "bike_type": 150, "lock_types": ["frame_lock"], "active": true, "state": "ok", "electric_lock": true, "boardcomputer": 7551088937, "pedelec_battery": null, "battery_pack": null}, {"number": "47934", "bike_type": 150, "lock_types": ["frame_lock"], "active": true, "state": "ok", "electric_lock": true, "boardcomputer": 7551088927, "pedelec_battery": null, "battery_pack": null}], "bike_numbers": ["47253", "825602", "46996", "46985", "46983", "46980", "46872", "46768", "46765", "46695", "46694", "46685", "46628", "46576", "46555", "46527", "46482", "46439", "46430", "47934"], "bike_types": {"15": 1, "143": 1, "150": 18}, "place_type": "14", "rack_locks": true}, {"uid": 19548002, "lat": 55.886934, "lng": -4.285022, "bike": false, "name": "Shakespeare Street (Maryhill) - ELECTRIC", "address": null, "spot": true, "number": 8427, "booked_bikes": 0, "bikes": 0, "bikes_available_to_rent": 0, "bike_racks": 8, "free_racks": 6, "special_racks": 0, "free_special_racks": 0, "maintenance": false, "terminal_type": "smart_sign", "bike_list": [], "bike_numbers": [], "bike_types": {}, "place_type": "14", "rack_locks": true}, {"uid": 19548440, "lat": 55.881493, "lng": -4.254465, "bike": false, "name": "Possil Health Centre (Saracen Street) - ELECTRIC", "address": null, "spot": true, "number": 8414, "booked_bikes": 0, "bikes": 6, "bikes_available_to_rent": 6, "bike_racks": 8, "free_racks": 4, "special_racks": 0, "free_special_racks": 4, "maintenance": false, "terminal_type": "smart_sign", "bike_list": [{"number": "47619", "bike_type": 15, "lock_types": ["fork_lock"], "active": true, "state": "ok", "electric_lock": true, "boardcomputer": 28115, "pedelec_battery": null, "battery_pack": null}, {"number": "825895", "bike_type": 143, "lock_types": ["frame_lock"], "active": true, "state": "ok", "electric_lock": true, "boardcomputer": 7551115796, "pedelec_battery": 100, "battery_pack": {"percentage": 100}}, {"number": "46760", "bike_type": 150, "lock_types": ["frame_lock"], "active": true, "state": "ok", "electric_lock": true, "boardcomputer": 7551089126, "pedelec_battery": null, "battery_pack": null}, {"number": "46726", "bike_type": 150, "lock_types": ["frame_lock"], "active": true, "state": "ok", "electric_lock": true, "boardcomputer": 7551137228, "pedelec_battery": null, "battery_pack": null}, {"number": "46632", "bike_type": 150, "lock_types": ["frame_lock"], "active": true, "state": "ok", "electric_lock": true, "boardcomputer": 7551085316, "pedelec_battery": null, "battery_pack": null}, {"number": "829014", "bike_type": 15, "lock_types": ["fork_lock"], "active": true, "state": "ok", "electric_lock": true, "boardcomputer": 20662, "pedelec_battery": null, "battery_pack": null}], "bike_numbers": ["47619", "825895", "46760", "46726", "46632", "829014"], "bike_types": {"15": 2, "143": 1, "150": 3}, "place_type": "14", "rack_locks": true}, {"uid": 19548484, "lat": 55.865063, "lng": -4.260291, "bike": false, "name": "Cambridge Street - ELECTRIC", "address": null, "spot": true, "number": 8434, "booked_bikes": 0, "bikes": 4, "bikes_available_to_rent": 4, "bike_racks": 8, "free_racks": 5, "special_racks": 0, "free_special_racks": 5, "maintenance": false, "terminal_type": "smart_sign", "bike_list": [{"number": "47654", "bike_type": 143, "lock_types": ["frame_lock"], "active": true, "state": "ok", "electric_lock": true, "boardcomputer": 7551084368, "pedelec_battery": 77, "battery_pack": {"percentage": 77}}, {"number": "47895", "bike_type": 143, "lock_types": ["frame_lock"], "active": true, "state": "ok", "electric_lock": true, "boardcomputer": 7551135593, "pedelec_battery": 67, "battery_pack": {"percentage": 67}}, {"number": "840036", "bike_type": 182, "lock_types": ["frame_lock"], "active": true, "state": "ok", "electric_lock": true, "boardcomputer": 7551068909, "pedelec_battery": 100, "battery_pack": {"percentage": 100}}, {"number": "46495", "bike_type": 150, "lock_types": ["frame_lock"], "active": true, "state": "ok", "electric_lock": true, "boardcomputer": 7551088830, "pedelec_battery": null, "battery_pack": null}], "bike_numbers": ["47654", "47895", "840036", "46495"], "bike_types": {"143": 2, "150": 1, "182": 1}, "place_type": "14", "rack_locks": true}, {"uid": 19548760, "lat": 55.852705, "lng": -4.201594, "bike": false, "name": "Glasgow Forge (Gallowgate)", "address": null, "spot": true, "number": 8436, "booked_bikes": 0, "bikes": 9, "bikes_available_to_rent": 9, "bike_racks": 8, "free_racks": 3, "special_racks": 0, "free_special_racks": 3, "maintenance": false, "terminal_type": "smart_sign", "bike_list": [{"number": "99616", "bike_type": 15, "lock_types": ["fork_lock"], "active": true, "state": "ok", "electric_lock": true, "boardcomputer": 29122, "pedelec_battery": null, "battery_pack": null}, {"number": "47202", "bike_type": 15, "lock_types": ["fork_lock"], "active": true, "state": "ok", "electric_lock": false, "boardcomputer": 21125, "pedelec_battery": null, "battery_pack": null}, {"number": "47605", "bike_type": 15, "lock_types": ["fork_lock"], "active": true, "state": "ok", "electric_lock": true, "boardcomputer": 24318, "pedelec_battery": null, "battery_pack": null}, {"number": "47691", "bike_type": 143, "lock_types": ["frame_lock"], "active": true, "state": "ok", "electric_lock": true, "boardcomputer": 7551114053, "pedelec_battery": 0, "battery_pack": {"percentage": 0}}, {"number": "47902", "bike_type": 143, "lock_types": ["frame_lock"], "active": true, "state": "ok", "electric_lock": true, "boardcomputer": 7551116092, "pedelec_battery": 77, "battery_pack": {"percentage": 77}}, {"number": "46951", "bike_type": 150, "lock_types": ["frame_lock"], "active": true, "state": "ok", "electric_lock": true, "boardcomputer": 7551132955, "pedelec_battery": null, "battery_pack": null}, {"number": "46733", "bike_type": 150, "lock_types": ["frame_lock"], "active": true, "state": "ok", "electric_lock": true, "boardcomputer": 7551088381, "pedelec_battery": null, "battery_pack": null}, {"number": "46623", "bike_type": 150, "lock_types": ["frame_lock"], "active": true, "state": "ok", "electric_lock": true, "boardcomputer": 7551084600, "pedelec_battery": null, "battery_pack": null}, {"number": "46616", "bike_type": 150, "lock_types": ["frame_lock"], "active": true, "state": "ok", "electric_lock": true, "boardcomputer": 7551088564, "pedelec_battery": null, "battery_pack": null}], "bike_numbers": ["99616", "47202", "47605", "47691", "47902", "46951", "46733", "46623", "46616"], "bike_types": {"15": 3, "143": 2, "150": 4}, "place_type": "14", "rack_locks": true}, {"uid": 19738176, "lat": 55.865683, "lng": -4.305367, "bike": false, "name": "Riverside Museum", "address": null, "spot": true, "number": 8416, "booked_bikes": 0, "bikes": 1, "bikes_available_to_rent": 1, "bike_racks": 6, "free_racks": 5, "special_racks": 0, "free_special_racks": 0, "maintenance": false, "terminal_type": "smart_sign", "bike_list": [{"number": "46920", "bike_type": 150, "lock_types": ["frame_lock"], "active": true, "state": "ok", "electric_lock": true, "boardcomputer": 7551073262, "pedelec_battery": null, "battery_pack": null}], "bike_numbers": ["46920"], "bike_types": {"150": 1}, "place_type": "0", "rack_locks": false}, {"uid": 21603723, "lat": 55.850987, "lng": -4.301448, "bike": false, "name": "Ibrox", "address": null, "spot": true, "number": 8452, "booked_bikes": 0, "bikes": 11, "bikes_available_to_rent": 11, "bike_racks": 8, "free_racks": 0, "special_racks": 0, "free_special_racks": 0, "maintenance": false, "terminal_type": "smart_sign", "bike_list": [{"number": "47427", "bike_type": 15, "lock_types": ["fork_lock"], "active": true, "state": "ok", "electric_lock": true, "boardcomputer": 21805, "pedelec_battery": null, "battery_pack": null}, {"number": "47282", "bike_type": 15, "lock_types": ["fork_lock"], "active": true, "state": "ok", "electric_lock": true, "boardcomputer": 23560, "pedelec_battery": null, "battery_pack": null}, {"number": "47163", "bike_type": 15, "lock_types": ["fork_lock"], "active": true, "state": "ok", "electric_lock": true, "boardcomputer": 28060, "pedelec_battery": null, "battery_pack": null}, {"number": "47001", "bike_type": 15, "lock_types": ["fork_lock"], "active": true, "state": "ok", "electric_lock": true, "boardcomputer": 29784, "pedelec_battery": null, "battery_pack": null}, {"number": "46802", "bike_type": 150, "lock_types": ["frame_lock"], "active": true, "state": "ok", "electric_lock": true, "boardcomputer": 7551134770, "pedelec_battery": null, "battery_pack": null}, {"number": "46693", "bike_type": 150, "lock_types": ["frame_lock"], "active": true, "state": "ok", "electric_lock": true, "boardcomputer": 7551088241, "pedelec_battery": null, "battery_pack": null}, {"number": "46591", "bike_type": 150, "lock_types": ["frame_lock"], "active": true, "state": "ok", "electric_lock": true, "boardcomputer": 7551084582, "pedelec_battery": null, "battery_pack": null}, {"number": "46563", "bike_type": 150, "lock_types": ["frame_lock"], "active": true, "state": "ok", "electric_lock": true, "boardcomputer": 7551088216, "pedelec_battery": null, "battery_pack": null}, {"number": "46548", "bike_type": 150, "lock_types": ["frame_lock"], "active": true, "state": "ok", "electric_lock": true, "boardcomputer": 7551088952, "pedelec_battery": null, "battery_pack": null}, {"number": "46428", "bike_type": 150, "lock_types": ["frame_lock"], "active": true, "state": "ok", "electric_lock": true, "boardcomputer": 7551088802, "pedelec_battery": null, "battery_pack": null}, {"number": "47907", "bike_type": 150, "lock_types": ["frame_lock"], "active": true, "state": "ok", "electric_lock": true, "boardcomputer": 7551088334, "pedelec_battery": null, "battery_pack": null}], "bike_numbers": ["47427", "47282", "47163", "47001", "46802", "46693", "46591", "46563", "46548", "46428", "47907"], "bike_types": {"15": 4, "150": 7}, "place_type": "0", "rack_locks": false}, {"uid": 28521334, "lat": 55.858587, "lng": -4.259847, "bike": false, "name": "Glasgow Central West", "address": null, "spot": true, "number": 8216, "booked_bikes": 0, "bikes": 2, "bikes_available_to_rent": 2, "bike_racks": 8, "free_racks": 6, "special_racks": 0, "free_special_racks": 0, "maintenance": false, "terminal_type": "smart_sign", "bike_list": [{"number": "46937", "bike_type": 150, "lock_types": ["frame_lock"], "active": true, "state": "ok", "electric_lock": true, "boardcomputer": 7551125729, "pedelec_battery": null, "battery_pack": null}, {"number": "46652", "bike_type": 150, "lock_types": ["frame_lock"], "active": true, "state": "ok", "electric_lock": true, "boardcomputer": 7551088259, "pedelec_battery": null, "battery_pack": null}], "bike_numbers": ["46937", "46652"], "bike_types": {"150": 2}, "place_type": "0", "rack_locks": false}, {"uid": 28521383, "lat": 55.85658, "lng": -4.26887, "bike": false, "name": "Broomielaw West ", "address": null, "spot": true, "number": 8217, "booked_bikes": 0, "bikes": 6, "bikes_available_to_rent": 6, "bike_racks": 8, "free_racks": 2, "special_racks": 0, "free_special_racks": 0, "maintenance": false, "terminal_type": "smart_sign", "bike_list": [{"number": "47453", "bike_type": 15, "lock_types": ["fork_lock"], "active": true, "state": "ok", "electric_lock": true, "boardcomputer": 28180, "pedelec_battery": null, "battery_pack": null}, {"number": "81165", "bike_type": 15, "lock_types": ["fork_lock"], "active": true, "state": "ok", "electric_lock": true, "boardcomputer": 27882, "pedelec_battery": null, "battery_pack": null}, {"number": "46795", "bike_type": 150, "lock_types": ["frame_lock"], "active": true, "state": "ok", "electric_lock": true, "boardcomputer": 7551116368, "pedelec_battery": null, "battery_pack": null}, {"number": "46725", "bike_type": 150, "lock_types": ["frame_lock"], "active": true, "state": "ok", "electric_lock": true, "boardcomputer": 7551086155, "pedelec_battery": null, "battery_pack": null}, {"number": "46647", "bike_type": 150, "lock_types": ["frame_lock"], "active": true, "state": "ok", "electric_lock": true, "boardcomputer": 7551088526, "pedelec_battery": null, "battery_pack": null}, {"number": "46512", "bike_type": 150, "lock_types": ["frame_lock"], "active": true, "state": "ok", "electric_lock": true, "boardcomputer": 7551088790, "pedelec_battery": null, "battery_pack": null}], "bike_numbers": ["47453", "81165", "46795", "46725", "46647", "46512"], "bike_types": {"15": 2, "150": 4}, "place_type": "0", "rack_locks": false}, {"uid": 28521431, "lat": 55.87422, "lng": -4.26136, "bike": false, "name": "The Round Toll", "address": null, "spot": true, "number": 8218, "booked_bikes": 0, "bikes": 3, "bikes_available_to_rent": 3, "bike_racks": 8, "free_racks": 5, "special_racks": 0, "free_special_racks": 0, "maintenance": false, "terminal_type": "smart_sign", "bike_list": [{"number": "46993", "bike_type": 150, "lock_types": ["frame_lock"], "active": true, "state": "ok", "electric_lock": true, "boardcomputer": 7551123852, "pedelec_battery": null, "battery_pack": null}, {"number": "46675", "bike_type": 150, "lock_types": ["frame_lock"], "active": true, "state": "ok", "electric_lock": true, "boardcomputer": 7551088409, "pedelec_battery": null, "battery_pack": null}, {"number": "46606", "bike_type": 150, "lock_types": ["frame_lock"], "active": true, "state": "ok", "electric_lock": true, "boardcomputer": 7551084416, "pedelec_battery": null, "battery_pack": null}], "bike_numbers": ["46993", "46675", "46606"], "bike_types": {"150": 3}, "place_type": "0", "rack_locks": false}, {"uid": 28521474, "lat": 55.85476, "lng": -4.25164, "bike": false, "name": "Carrick Quay", "address": null, "spot": true, "number": 8231, "booked_bikes": 0, "bikes": 5, "bikes_available_to_rent": 5, "bike_racks": 8, "free_racks": 3, "special_racks": 0, "free_special_racks": 0, "maintenance": false, "terminal_type": "smart_sign", "bike_list": [{"number": "47499", "bike_type": 15, "lock_types": ["fork_lock"], "active": true, "state": "ok", "electric_lock": true, "boardcomputer": 22380, "pedelec_battery": null, "battery_pack": null}, {"number": "46957", "bike_type": 150, "lock_types": ["frame_lock"], "active": true, "state": "ok", "electric_lock": true, "boardcomputer": 7551114540, "pedelec_battery": null, "battery_pack": null}, {"number": "46919", "bike_type": 150, "lock_types": ["frame_lock"], "active": true, "state": "ok", "electric_lock": true, "boardcomputer": 7551070300, "pedelec_battery": null, "battery_pack": null}, {"number": "46853", "bike_type": 150, "lock_types": ["frame_lock"], "active": true, "state": "ok", "electric_lock": true, "boardcomputer": 7551116255, "pedelec_battery": null, "battery_pack": null}, {"number": "829086", "bike_type": 15, "lock_types": ["fork_lock"], "active": true, "state": "ok", "electric_lock": true, "boardcomputer": 35723, "pedelec_battery": null, "battery_pack": null}], "bike_numbers": ["47499", "46957", "46919", "46853", "829086"], "bike_types": {"15": 2, "150": 3}, "place_type": "0", "rack_locks": false}, {"uid": 28521513, "lat": 55.864132, "lng": -4.259101, "bike": false, "name": "132 Bath Street", "address": null, "spot": true, "number": 8219, "booked_bikes": 0, "bikes": 9, "bikes_available_to_rent": 9, "bike_racks": 8, "free_racks": 0, "special_racks": 0, "free_special_racks": 0, "maintenance": false, "terminal_type": "smart_sign", "bike_list": [{"number": "47413", "bike_type": 15, "lock_types": ["fork_lock"], "active": true, "state": "ok", "electric_lock": true, "boardcomputer": 29006, "pedelec_battery": null, "battery_pack": null}, {"number": "47573", "bike_type": 15, "lock_types": ["fork_lock"], "active": true, "state": "ok", "electric_lock": true, "boardcomputer": 28685, "pedelec_battery": null, "battery_pack": null}, {"number": "47852", "bike_type": 143, "lock_types": ["frame_lock"], "active": true, "state": "ok", "electric_lock": true, "boardcomputer": 7551068930, "pedelec_battery": 60, "battery_pack": {"percentage": 60}}, {"number": "46869", "bike_type": 150, "lock_types": ["frame_lock"], "active": true, "state": "ok", "electric_lock": true, "boardcomputer": 7551069297, "pedelec_battery": null, "battery_pack": null}, {"number": "46762", "bike_type": 150, "lock_types": ["frame_lock"], "active": true, "state": "ok", "electric_lock": true, "boardcomputer": 7551089208, "pedelec_battery": null, "battery_pack": null}, {"number": "46435", "bike_type": 150, "lock_types": ["frame_lock"], "active": true, "state": "ok", "electric_lock": true, "boardcomputer": 7551088928, "pedelec_battery": null, "battery_pack": null}, {"number": "47915", "bike_type": 150, "lock_types": ["frame_lock"], "active": true, "state": "ok", "electric_lock": true, "boardcomputer": 7551088692, "pedelec_battery": null, "battery_pack": null}, {"number": "829094", "bike_type": 15, "lock_types": ["fork_lock"], "active": true, "state": "ok", "electric_lock": true, "boardcomputer": 26440, "pedelec_battery": null, "battery_pack": null}, {"number": "829093", "bike_type": 15, "lock_types": ["fork_lock"], "active": true, "state": "ok", "electric_lock": true, "boardcomputer": 39442, "pedelec_battery": null, "battery_pack": null}], "bike_numbers": ["47413", "47573", "47852", "46869", "46762", "46435", "47915", "829094", "829093"], "bike_types": {"15": 4, "143": 1, "150": 4}, "place_type": "0", "rack_locks": false}, {"uid": 28521547, "lat": 55.85586, "lng": -4.24695, "bike": false, "name": "King Street South", "address": null, "spot": true, "number": 8230, "booked_bikes": 0, "bikes": 8, "bikes_available_to_rent": 8, "bike_racks": 8, "free_racks": 0, "special_racks": 0, "free_special_racks": 0, "maintenance": true, "terminal_type": "smart_sign", "bike_list": [{"number": "47407", "bike_type": 15, "lock_types": ["fork_lock"], "active": true, "state": "ok", "electric_lock": true, "boardcomputer": 29554, "pedelec_battery": null, "battery_pack": null}, {"number": "47341", "bike_type": 15, "lock_types": ["fork_lock"], "active": true, "state": "ok", "electric_lock": true, "boardcomputer": 21739, "pedelec_battery": null, "battery_pack": null}, {"number": "47069", "bike_type": 15, "lock_types": ["fork_lock"], "active": true, "state": "ok", "electric_lock": true, "boardcomputer": 23365, "pedelec_battery": null, "battery_pack": null}, {"number": "47622", "bike_type": 15, "lock_types": ["fork_lock"], "active": true, "state": "ok", "electric_lock": true, "boardcomputer": 28162, "pedelec_battery": null, "battery_pack": null}, {"number": "46816", "bike_type": 150, "lock_types": ["frame_lock"], "active": true, "state": "ok", "electric_lock": true, "boardcomputer": 7551028743, "pedelec_battery": null, "battery_pack": null}, {"number": "46774", "bike_type": 150, "lock_types": ["frame_lock"], "active": true, "state": "ok", "electric_lock": true, "boardcomputer": 7551088720, "pedelec_battery": null, "battery_pack": null}, {"number": "46653", "bike_type": 150, "lock_types": ["frame_lock"], "active": true, "state": "ok", "electric_lock": true, "boardcomputer": 7551088451, "pedelec_battery": null, "battery_pack": null}, {"number": "47916", "bike_type": 150, "lock_types": ["frame_lock"], "active": true, "state": "ok", "electric_lock": true, "boardcomputer": 7551134759, "pedelec_battery": null, "battery_pack": null}], "bike_numbers": ["47407", "47341", "47069", "47622", "46816", "46774", "46653", "47916"], "bike_types": {"15": 4, "150": 4}, "place_type": "0", "rack_locks": false}, {"uid": 31234332, "lat": 55.876975, "lng": -4.306222, "bike": false, "name": "Hyndland Road ", "address": "141 Hyndland Rd", "spot": true, "number": 8232, "booked_bikes": 0, "bikes": 3, "bikes_available_to_rent": 3, "bike_racks": 8, "free_racks": 5, "special_racks": 0, "free_special_racks": 0, "maintenance": false, "terminal_type": "smart_sign", "bike_list": [{"number": "47228", "bike_type": 15, "lock_types": ["fork_lock"], "active": true, "state": "ok", "electric_lock": true, "boardcomputer": 28701, "pedelec_battery": null, "battery_pack": null}, {"number": "829025", "bike_type": 15, "lock_types": ["fork_lock"], "active": true, "state": "ok", "electric_lock": true, "boardcomputer": 36893, "pedelec_battery": null, "battery_pack": null}, {"number": "829002", "bike_type": 15, "lock_types": ["fork_lock"], "active": true, "state": "ok", "electric_lock": true, "boardcomputer": 20383, "pedelec_battery": null, "battery_pack": null}], "bike_numbers": ["47228", "829025", "829002"], "bike_types": {"15": 3}, "place_type": "0", "rack_locks": false}, {"uid": 31234355, "lat": 55.871029, "lng": -4.321625, "bike": false, "name": "Broomhill", "address": "724 Dumbarton Rd", "spot": true, "number": 8233, "booked_bikes": 0, "bikes": 2, "bikes_available_to_rent": 2, "bike_racks": 8, "free_racks": 6, "special_racks": 0, "free_special_racks": 0, "maintenance": false, "terminal_type": "smart_sign", "bike_list": [{"number": "47293", "bike_type": 15, "lock_types": ["fork_lock"], "active": true, "state": "ok", "electric_lock": true, "boardcomputer": 27877, "pedelec_battery": null, "battery_pack": null}, {"number": "829087", "bike_type": 15, "lock_types": ["fork_lock"], "active": true, "state": "ok", "electric_lock": true, "boardcomputer": 26690, "pedelec_battery": null, "battery_pack": null}], "bike_numbers": ["47293", "829087"], "bike_types": {"15": 2}, "place_type": "0", "rack_locks": false}, {"uid": 31234411, "lat": 55.845518, "lng": -4.286476, "bike": false, "name": "St Andrews Drive @ Maxwell Drive", "address": "51 St. Andrews Dr", "spot": true, "number": 8235, "booked_bikes": 0, "bikes": 1, "bikes_available_to_rent": 1, "bike_racks": 8, "free_racks": 7, "special_racks": 0, "free_special_racks": 0, "maintenance": false, "terminal_type": "smart_sign", "bike_list": [{"number": "47404", "bike_type": 15, "lock_types": ["fork_lock"], "active": true, "state": "ok", "electric_lock": true, "boardcomputer": 23162, "pedelec_battery": null, "battery_pack": null}], "bike_numbers": ["47404"], "bike_types": {"15": 1}, "place_type": "0", "rack_locks": false}, {"uid": 31234437, "lat": 55.878152, "lng": -4.242439, "bike": false, "name": "St Rollox", "address": "Opp. Cowlairs Industrial Estate", "spot": true, "number": 8236, "booked_bikes": 0, "bikes": 0, "bikes_available_to_rent": 0, "bike_racks": 8, "free_racks": 8, "special_racks": 0, "free_special_racks": 0, "maintenance": false, "terminal_type": "smart_sign", "bike_list": [], "bike_numbers": [], "bike_types": {}, "place_type": "0", "rack_locks": false}, {"uid": 31475534, "lat": 55.882232, "lng": -4.230428, "bike": false, "name": "Springburn Railway Station", "address": null, "spot": true, "number": 8237, "booked_bikes": 0, "bikes": 8, "bikes_available_to_rent": 8, "bike_racks": 8, "free_racks": 0, "special_racks": 0, "free_special_racks": 0, "maintenance": false, "terminal_type": "smart_sign", "bike_list": [{"number": "47081", "bike_type": 15, "lock_types": ["fork_lock"], "active": true, "state": "ok", "electric_lock": true, "boardcomputer": 28228, "pedelec_battery": null, "battery_pack": null}, {"number": "825536", "bike_type": 143, "lock_types": ["frame_lock"], "active": true, "state": "ok", "electric_lock": true, "boardcomputer": 7551088687, "pedelec_battery": null, "battery_pack": null}, {"number": "46893", "bike_type": 150, "lock_types": ["frame_lock"], "active": true, "state": "ok", "electric_lock": true, "boardcomputer": 7551127111, "pedelec_battery": null, "battery_pack": null}, {"number": "46778", "bike_type": 150, "lock_types": ["frame_lock"], "active": true, "state": "ok", "electric_lock": true, "boardcomputer": 7551134560, "pedelec_battery": null, "battery_pack": null}, {"number": "46627", "bike_type": 150, "lock_types": ["frame_lock"], "active": true, "state": "ok", "electric_lock": true, "boardcomputer": 7551088664, "pedelec_battery": null, "battery_pack": null}, {"number": "46523", "bike_type": 150, "lock_types": ["frame_lock"], "active": true, "state": "ok", "electric_lock": true, "boardcomputer": 7551088523, "pedelec_battery": null, "battery_pack": null}, {"number": "47979", "bike_type": 143, "lock_types": ["frame_lock"], "active": true, "state": "ok", "electric_lock": true, "boardcomputer": 7551111782, "pedelec_battery": 98, "battery_pack": {"percentage": 98}}, {"number": "47958", "bike_type": 143, "lock_types": ["frame_lock"], "active": true, "state": "ok", "electric_lock": true, "boardcomputer": 7551116524, "pedelec_battery": 93, "battery_pack": {"percentage": 93}}], "bike_numbers": ["47081", "825536", "46893", "46778", "46627", "46523", "47979", "47958"], "bike_types": {"15": 1, "143": 3, "150": 4}, "place_type": "0", "rack_locks": true}, {"uid": 41822435, "lat": 55.8585, "lng": -4.292972, "bike": false, "name": "Glasgow Science Centre", "address": null, "spot": true, "number": 8426, "booked_bikes": 0, "bikes": 23, "bikes_available_to_rent": 23, "bike_racks": 10, "free_racks": 0, "special_racks": 0, "free_special_racks": 0, "maintenance": true, "terminal_type": "smart_sign", "bike_list": [{"number": "47292", "bike_type": 15, "lock_types": ["fork_lock"], "active": true, "state": "ok", "electric_lock": true, "boardcomputer": 28643, "pedelec_battery": null, "battery_pack": null}, {"number": "825537", "bike_type": 143, "lock_types": ["frame_lock"], "active": true, "state": "ok", "electric_lock": true, "boardcomputer": 7551127024, "pedelec_battery": 70, "battery_pack": {"percentage": 70}}, {"number": "46938", "bike_type": 150, "lock_types": ["frame_lock"], "active": true, "state": "ok", "electric_lock": true, "boardcomputer": 7551124477, "pedelec_battery": null, "battery_pack": null}, {"number": "46933", "bike_type": 150, "lock_types": ["frame_lock"], "active": true, "state": "ok", "electric_lock": true, "boardcomputer": 7551125186, "pedelec_battery": null, "battery_pack": null}, {"number": "46822", "bike_type": 150, "lock_types": ["frame_lock"], "active": true, "state": "ok", "electric_lock": true, "boardcomputer": 7551136055, "pedelec_battery": null, "battery_pack": null}, {"number": "46819", "bike_type": 150, "lock_types": ["frame_lock"], "active": true, "state": "ok", "electric_lock": true, "boardcomputer": 7551088475, "pedelec_battery": null, "battery_pack": null}, {"number": "46811", "bike_type": 150, "lock_types": ["frame_lock"], "active": true, "state": "ok", "electric_lock": true, "boardcomputer": 7551089148, "pedelec_battery": null, "battery_pack": null}, {"number": "46732", "bike_type": 150, "lock_types": ["frame_lock"], "active": true, "state": "ok", "electric_lock": true, "boardcomputer": 7551088239, "pedelec_battery": null, "battery_pack": null}, {"number": "46730", "bike_type": 150, "lock_types": ["frame_lock"], "active": true, "state": "ok", "electric_lock": true, "boardcomputer": 7551088317, "pedelec_battery": null, "battery_pack": null}, {"number": "46724", "bike_type": 150, "lock_types": ["frame_lock"], "active": true, "state": "ok", "electric_lock": true, "boardcomputer": 7551086115, "pedelec_battery": null, "battery_pack": null}, {"number": "46667", "bike_type": 150, "lock_types": ["frame_lock"], "active": true, "state": "ok", "electric_lock": true, "boardcomputer": 7551094807, "pedelec_battery": null, "battery_pack": null}, {"number": "46660", "bike_type": 150, "lock_types": ["frame_lock"], "active": true, "state": "ok", "electric_lock": true, "boardcomputer": 7551088887, "pedelec_battery": null, "battery_pack": null}, {"number": "46587", "bike_type": 150, "lock_types": ["frame_lock"], "active": true, "state": "ok", "electric_lock": true, "boardcomputer": 7551094572, "pedelec_battery": null, "battery_pack": null}, {"number": "46580", "bike_type": 150, "lock_types": ["frame_lock"], "active": true, "state": "ok", "electric_lock": true, "boardcomputer": 7551088240, "pedelec_battery": null, "battery_pack": null}, {"number": "46573", "bike_type": 150, "lock_types": ["frame_lock"], "active": true, "state": "ok", "electric_lock": true, "boardcomputer": 7551143534, "pedelec_battery": null, "battery_pack": null}, {"number": "46539", "bike_type": 150, "lock_types": ["frame_lock"], "active": true, "state": "ok", "electric_lock": true, "boardcomputer": 7551088380, "pedelec_battery": null, "battery_pack": null}, {"number": "46524", "bike_type": 150, "lock_types": ["frame_lock"], "active": true, "state": "ok", "electric_lock": true, "boardcomputer": 7551088522, "pedelec_battery": null, "battery_pack": null}, {"number": "46520", "bike_type": 150, "lock_types": ["frame_lock"], "active": true, "state": "ok", "electric_lock": true, "boardcomputer": 7551094773, "pedelec_battery": null, "battery_pack": null}, {"number": "46485", "bike_type": 150, "lock_types": ["frame_lock"], "active": true, "state": "ok", "electric_lock": true, "boardcomputer": 7551088290, "pedelec_battery": null, "battery_pack": null}, {"number": "46476", "bike_type": 150, "lock_types": ["frame_lock"], "active": true, "state": "ok", "electric_lock": true, "boardcomputer": 7551134199, "pedelec_battery": null, "battery_pack": null}, {"number": "46444", "bike_type": 150, "lock_types": ["frame_lock"], "active": true, "state": "ok", "electric_lock": true, "boardcomputer": 7551088524, "pedelec_battery": null, "battery_pack": null}, {"number": "46427", "bike_type": 150, "lock_types": ["frame_lock"], "active": true, "state": "ok", "electric_lock": true, "boardcomputer": 7551094725, "pedelec_battery": null, "battery_pack": null}, {"number": "829099", "bike_type": 15, "lock_types": ["fork_lock"], "active": true, "state": "ok", "electric_lock": true, "boardcomputer": 22467, "pedelec_battery": null, "battery_pack": null}], "bike_numbers": ["47292", "825537", "46938", "46933", "46822", "46819", "46811", "46732", "46730", "46724", "46667", "46660", "46587", "46580", "46573", "46539", "46524", "46520", "46485", "46476", "46444", "46427", "829099"], "bike_types": {"15": 2, "143": 1, "150": 20}, "place_type": "0", "rack_locks": false}, {"uid": 42417389, "lat": 55.817338, "lng": -4.262688, "bike": false, "name": "Cathcart Railway Station", "address": "271 Newlands Road", "spot": true, "number": 8206, "booked_bikes": 0, "bikes": 1, "bikes_available_to_rent": 1, "bike_racks": 8, "free_racks": 7, "special_racks": 0, "free_special_racks": 0, "maintenance": false, "terminal_type": "smart_sign", "bike_list": [{"number": "47843", "bike_type": 143, "lock_types": ["frame_lock"], "active": true, "state": "ok", "electric_lock": true, "boardcomputer": 7551030896, "pedelec_battery": null, "battery_pack": null}], "bike_numbers": ["47843"], "bike_types": {"143": 1}, "place_type": "0", "rack_locks": false}, {"uid": 42446574, "lat": 55.836355, "lng": -4.335149, "bike": false, "name": "Corkerhill Railway Station", "address": "24 Corkerhill Place", "spot": true, "number": 8208, "booked_bikes": 0, "bikes": 7, "bikes_available_to_rent": 7, "bike_racks": 10, "free_racks": 3, "special_racks": 0, "free_special_racks": 0, "maintenance": false, "terminal_type": "smart_sign", "bike_list": [{"number": "47184", "bike_type": 15, "lock_types": ["fork_lock"], "active": true, "state": "ok", "electric_lock": true, "boardcomputer": 21616, "pedelec_battery": null, "battery_pack": null}, {"number": "47115", "bike_type": 15, "lock_types": ["fork_lock"], "active": true, "state": "ok", "electric_lock": true, "boardcomputer": 21144, "pedelec_battery": null, "battery_pack": null}, {"number": "81180", "bike_type": 15, "lock_types": ["fork_lock"], "active": true, "state": "ok", "electric_lock": true, "boardcomputer": 29504, "pedelec_battery": null, "battery_pack": null}, {"number": "46997", "bike_type": 150, "lock_types": ["frame_lock"], "active": true, "state": "ok", "electric_lock": true, "boardcomputer": 7551116307, "pedelec_battery": null, "battery_pack": null}, {"number": "46719", "bike_type": 150, "lock_types": ["frame_lock"], "active": true, "state": "ok", "electric_lock": true, "boardcomputer": 7551084555, "pedelec_battery": null, "battery_pack": null}, {"number": "46600", "bike_type": 150, "lock_types": ["frame_lock"], "active": true, "state": "ok", "electric_lock": true, "boardcomputer": 7551088668, "pedelec_battery": null, "battery_pack": null}, {"number": "47961", "bike_type": 143, "lock_types": ["frame_lock"], "active": true, "state": "ok", "electric_lock": true, "boardcomputer": 7551108322, "pedelec_battery": 92, "battery_pack": {"percentage": 92}}], "bike_numbers": ["47184", "47115", "81180", "46997", "46719", "46600", "47961"], "bike_types": {"15": 3, "143": 1, "150": 3}, "place_type": "0", "rack_locks": false}, {"uid": 42487653, "lat": 55.841494, "lng": -4.269701, "bike": false, "name": "Pollokshields East Railway", "address": "107 Albert Dr", "spot": true, "number": 8210, "booked_bikes": 0, "bikes": 7, "bikes_available_to_rent": 7, "bike_racks": 10, "free_racks": 3, "special_racks": 0, "free_special_racks": 0, "maintenance": false, "terminal_type": "smart_sign", "bike_list": [{"number": "47564", "bike_type": 15, "lock_types": ["fork_lock"], "active": true, "state": "ok", "electric_lock": true, "boardcomputer": 27490, "pedelec_battery": null, "battery_pack": null}, {"number": "46934", "bike_type": 150, "lock_types": ["frame_lock"], "active": true, "state": "ok", "electric_lock": true, "boardcomputer": 7551069983, "pedelec_battery": null, "battery_pack": null}, {"number": "46749", "bike_type": 150, "lock_types": ["frame_lock"], "active": true, "state": "ok", "electric_lock": true, "boardcomputer": 7551088845, "pedelec_battery": null, "battery_pack": null}, {"number": "46687", "bike_type": 150, "lock_types": ["frame_lock"], "active": true, "state": "ok", "electric_lock": true, "boardcomputer": 7551136830, "pedelec_battery": null, "battery_pack": null}, {"number": "46598", "bike_type": 150, "lock_types": ["frame_lock"], "active": true, "state": "ok", "electric_lock": true, "boardcomputer": 7551088648, "pedelec_battery": null, "battery_pack": null}, {"number": "46557", "bike_type": 150, "lock_types": ["frame_lock"], "active": true, "state": "ok", "electric_lock": true, "boardcomputer": 7551088382, "pedelec_battery": null, "battery_pack": null}, {"number": "46551", "bike_type": 150, "lock_types": ["frame_lock"], "active": true, "state": "ok", "electric_lock": true, "boardcomputer": 7551086448, "pedelec_battery": null, "battery_pack": null}], "bike_numbers": ["47564", "46934", "46749", "46687", "46598", "46557", "46551"], "bike_types": {"15": 1, "150": 6}, "place_type": "0", "rack_locks": false}, {"uid": 42553766, "lat": 55.840336, "lng": -4.135251, "bike": false, "name": "Mount Vernon Railway Station", "address": "236 Hamilton Road, Glasgow", "spot": true, "number": 8211, "booked_bikes": 0, "bikes": 9, "bikes_available_to_rent": 9, "bike_racks": 0, "free_racks": 0, "special_racks": 0, "free_special_racks": 0, "maintenance": false, "terminal_type": "smart_sign", "bike_list": [{"number": "47402", "bike_type": 15, "lock_types": ["fork_lock"], "active": true, "state": "ok", "electric_lock": true, "boardcomputer": 23121, "pedelec_battery": null, "battery_pack": null}, {"number": "47324", "bike_type": 15, "lock_types": ["fork_lock"], "active": true, "state": "ok", "electric_lock": true, "boardcomputer": 21757, "pedelec_battery": null, "battery_pack": null}, {"number": "47087", "bike_type": 15, "lock_types": ["fork_lock"], "active": true, "state": "ok", "electric_lock": true, "boardcomputer": 20606, "pedelec_battery": null, "battery_pack": null}, {"number": "47897", "bike_type": 143, "lock_types": ["frame_lock"], "active": true, "state": "ok", "electric_lock": true, "boardcomputer": 7551124997, "pedelec_battery": 61, "battery_pack": {"percentage": 61}}, {"number": "46907", "bike_type": 150, "lock_types": ["frame_lock"], "active": true, "state": "ok", "electric_lock": true, "boardcomputer": 7551072501, "pedelec_battery": null, "battery_pack": null}, {"number": "46805", "bike_type": 150, "lock_types": ["frame_lock"], "active": true, "state": "ok", "electric_lock": true, "boardcomputer": 7551088465, "pedelec_battery": null, "battery_pack": null}, {"number": "46712", "bike_type": 150, "lock_types": ["frame_lock"], "active": true, "state": "ok", "electric_lock": true, "boardcomputer": 7551089729, "pedelec_battery": null, "battery_pack": null}, {"number": "46673", "bike_type": 150, "lock_types": ["frame_lock"], "active": true, "state": "ok", "electric_lock": true, "boardcomputer": 7551084450, "pedelec_battery": null, "battery_pack": null}, {"number": "46469", "bike_type": 150, "lock_types": ["frame_lock"], "active": true, "state": "ok", "electric_lock": true, "boardcomputer": 7551093679, "pedelec_battery": null, "battery_pack": null}], "bike_numbers": ["47402", "47324", "47087", "47897", "46907", "46805", "46712", "46673", "46469"], "bike_types": {"15": 3, "143": 1, "150": 5}, "place_type": "14", "rack_locks": false}, {"uid": 42613734, "lat": 55.867405, "lng": -4.192788, "bike": false, "name": "Riddrie South", "address": "855 Cumbernauld Rd", "spot": true, "number": 8212, "booked_bikes": 0, "bikes": 6, "bikes_available_to_rent": 6, "bike_racks": 8, "free_racks": 2, "special_racks": 0, "free_special_racks": 0, "maintenance": false, "terminal_type": "smart_sign", "bike_list": [{"number": "47497", "bike_type": 15, "lock_types": ["fork_lock"], "active": true, "state": "ok", "electric_lock": true, "boardcomputer": 29922, "pedelec_battery": null, "battery_pack": null}, {"number": "47178", "bike_type": 15, "lock_types": ["fork_lock"], "active": true, "state": "ok", "electric_lock": true, "boardcomputer": 20137, "pedelec_battery": null, "battery_pack": null}, {"number": "47526", "bike_type": 15, "lock_types": ["fork_lock"], "active": true, "state": "ok", "electric_lock": true, "boardcomputer": 28682, "pedelec_battery": null, "battery_pack": null}, {"number": "840055", "bike_type": 143, "lock_types": ["frame_lock"], "active": true, "state": "ok", "electric_lock": true, "boardcomputer": 7551049740, "pedelec_battery": 0, "battery_pack": {"percentage": 0}}, {"number": "47973", "bike_type": 143, "lock_types": ["frame_lock"], "active": true, "state": "ok", "electric_lock": true, "boardcomputer": 7551133119, "pedelec_battery": null, "battery_pack": null}, {"number": "829098", "bike_type": 15, "lock_types": ["fork_lock"], "active": true, "state": "ok", "electric_lock": true, "boardcomputer": 26024, "pedelec_battery": null, "battery_pack": null}], "bike_numbers": ["47497", "47178", "47526", "840055", "47973", "829098"], "bike_types": {"15": 4, "143": 2}, "place_type": "0", "rack_locks": false}, {"uid": 42613824, "lat": 55.891127, "lng": -4.290879, "bike": false, "name": "Maryhill Library", "address": "1508 Maryhill Rd", "spot": true, "number": 8213, "booked_bikes": 0, "bikes": 1, "bikes_available_to_rent": 1, "bike_racks": 8, "free_racks": 7, "special_racks": 0, "free_special_racks": 0, "maintenance": false, "terminal_type": "smart_sign", "bike_list": [{"number": "46451", "bike_type": 150, "lock_types": ["frame_lock"], "active": true, "state": "ok", "electric_lock": true, "boardcomputer": 7551088516, "pedelec_battery": null, "battery_pack": null}], "bike_numbers": ["46451"], "bike_types": {"150": 1}, "place_type": "0", "rack_locks": false}, {"uid": 42613965, "lat": 55.890398, "lng": -4.324766, "bike": false, "name": "Anniesland Library", "address": "833 Crow Rd", "spot": true, "number": 8214, "booked_bikes": 0, "bikes": 15, "bikes_available_to_rent": 15, "bike_racks": 8, "free_racks": 1, "special_racks": 0, "free_special_racks": 1, "maintenance": false, "terminal_type": "smart_sign", "bike_list": [{"number": "47490", "bike_type": 15, "lock_types": ["fork_lock"], "active": true, "state": "ok", "electric_lock": true, "boardcomputer": 21246, "pedelec_battery": null, "battery_pack": null}, {"number": "47268", "bike_type": 15, "lock_types": ["fork_lock"], "active": true, "state": "ok", "electric_lock": true, "boardcomputer": 29667, "pedelec_battery": null, "battery_pack": null}, {"number": "81179", "bike_type": 15, "lock_types": ["fork_lock"], "active": true, "state": "ok", "electric_lock": true, "boardcomputer": 29556, "pedelec_battery": null, "battery_pack": null}, {"number": "825553", "bike_type": 182, "lock_types": ["frame_lock", "rack_adapter"], "active": true, "state": "ok", "electric_lock": true, "boardcomputer": 7551132414, "pedelec_battery": null, "battery_pack": null}, {"number": "825589", "bike_type": 143, "lock_types": ["frame_lock"], "active": true, "state": "ok", "electric_lock": true, "boardcomputer": 7551070368, "pedelec_battery": null, "battery_pack": null}, {"number": "47878", "bike_type": 143, "lock_types": ["frame_lock"], "active": true, "state": "ok", "electric_lock": true, "boardcomputer": 7551025241, "pedelec_battery": null, "battery_pack": null}, {"number": "47853", "bike_type": 143, "lock_types": ["frame_lock"], "active": true, "state": "ok", "electric_lock": true, "boardcomputer": 7551114044, "pedelec_battery": 71, "battery_pack": {"percentage": 71}}, {"number": "46942", "bike_type": 150, "lock_types": ["frame_lock"], "active": true, "state": "ok", "electric_lock": true, "boardcomputer": 7551126226, "pedelec_battery": null, "battery_pack": null}, {"number": "46756", "bike_type": 150, "lock_types": ["frame_lock"], "active": true, "state": "ok", "electric_lock": true, "boardcomputer": 7551134561, "pedelec_battery": null, "battery_pack": null}, {"number": "46582", "bike_type": 150, "lock_types": ["frame_lock"], "active": true, "state": "ok", "electric_lock": true, "boardcomputer": 7551088717, "pedelec_battery": null, "battery_pack": null}, {"number": "46420", "bike_type": 150, "lock_types": ["frame_lock"], "active": true, "state": "ok", "electric_lock": true, "boardcomputer": 7551094726, "pedelec_battery": null, "battery_pack": null}, {"number": "47932", "bike_type": 150, "lock_types": ["frame_lock"], "active": true, "state": "ok", "electric_lock": true, "boardcomputer": 7551088715, "pedelec_battery": null, "battery_pack": null}, {"number": "47972", "bike_type": 143, "lock_types": ["frame_lock"], "active": true, "state": "ok", "electric_lock": true, "boardcomputer": 7551113777, "pedelec_battery": 100, "battery_pack": {"percentage": 100}}, {"number": "47968", "bike_type": 143, "lock_types": ["frame_lock"], "active": true, "state": "ok", "electric_lock": true, "boardcomputer": 7551125107, "pedelec_battery": null, "battery_pack": null}, {"number": "47952", "bike_type": 143, "lock_types": ["frame_lock"], "active": true, "state": "ok", "electric_lock": true, "boardcomputer": 7551107351, "pedelec_battery": 100, "battery_pack": {"percentage": 100}}], "bike_numbers": ["47490", "47268", "81179", "825553", "825589", "47878", "47853", "46942", "46756", "46582", "46420", "47932", "47972", "47968", "47952"], "bike_types": {"15": 3, "143": 6, "150": 5, "182": 1}, "place_type": "14", "rack_locks": true}, {"uid": 42614033, "lat": 55.848564, "lng": -4.250996, "bike": false, "name": "Gorbals Library", "address": "190 Crown Street", "spot": true, "number": 8215, "booked_bikes": 0, "bikes": 11, "bikes_available_to_rent": 11, "bike_racks": 8, "free_racks": 0, "special_racks": 0, "free_special_racks": 0, "maintenance": false, "terminal_type": "smart_sign", "bike_list": [{"number": "47208", "bike_type": 15, "lock_types": ["fork_lock"], "active": true, "state": "ok", "electric_lock": true, "boardcomputer": 23944, "pedelec_battery": null, "battery_pack": null}, {"number": "47072", "bike_type": 15, "lock_types": ["fork_lock"], "active": true, "state": "ok", "electric_lock": true, "boardcomputer": 27322, "pedelec_battery": null, "battery_pack": null}, {"number": "47719", "bike_type": 15, "lock_types": ["fork_lock"], "active": true, "state": "ok", "electric_lock": true, "boardcomputer": 28993, "pedelec_battery": null, "battery_pack": null}, {"number": "47870", "bike_type": 143, "lock_types": ["frame_lock"], "active": true, "state": "ok", "electric_lock": true, "boardcomputer": 7551116341, "pedelec_battery": 56, "battery_pack": {"percentage": 56}}, {"number": "46715", "bike_type": 150, "lock_types": ["frame_lock"], "active": true, "state": "ok", "electric_lock": true, "boardcomputer": 7551133114, "pedelec_battery": null, "battery_pack": null}, {"number": "46672", "bike_type": 150, "lock_types": ["frame_lock"], "active": true, "state": "ok", "electric_lock": true, "boardcomputer": 7551088376, "pedelec_battery": null, "battery_pack": null}, {"number": "46588", "bike_type": 150, "lock_types": ["frame_lock"], "active": true, "state": "ok", "electric_lock": true, "boardcomputer": 7551124581, "pedelec_battery": null, "battery_pack": null}, {"number": "46507", "bike_type": 150, "lock_types": ["frame_lock"], "active": true, "state": "ok", "electric_lock": true, "boardcomputer": 7551108746, "pedelec_battery": null, "battery_pack": null}, {"number": "46483", "bike_type": 150, "lock_types": ["frame_lock"], "active": true, "state": "ok", "electric_lock": true, "boardcomputer": 7551088379, "pedelec_battery": null, "battery_pack": null}, {"number": "46446", "bike_type": 150, "lock_types": ["frame_lock"], "active": true, "state": "ok", "electric_lock": true, "boardcomputer": 7551088343, "pedelec_battery": null, "battery_pack": null}, {"number": "46401", "bike_type": 150, "lock_types": ["frame_lock"], "active": true, "state": "ok", "electric_lock": true, "boardcomputer": 7551092953, "pedelec_battery": null, "battery_pack": null}], "bike_numbers": ["47208", "47072", "47719", "47870", "46715", "46672", "46588", "46507", "46483", "46446", "46401"], "bike_types": {"15": 3, "143": 1, "150": 7}, "place_type": "0", "rack_locks": false}, {"uid": 45172531, "lat": 55.862102, "lng": -4.252307, "bike": false, "name": "Queen Street Railway ", "address": null, "spot": true, "number": 8740, "booked_bikes": 0, "bikes": 23, "bikes_available_to_rent": 23, "bike_racks": 10, "free_racks": 0, "special_racks": 0, "free_special_racks": 0, "maintenance": false, "terminal_type": "smart_sign", "bike_list": [{"number": "47365", "bike_type": 15, "lock_types": ["fork_lock"], "active": true, "state": "ok", "electric_lock": true, "boardcomputer": 26412, "pedelec_battery": null, "battery_pack": null}, {"number": "47319", "bike_type": 15, "lock_types": ["fork_lock"], "active": true, "state": "ok", "electric_lock": true, "boardcomputer": 21469, "pedelec_battery": null, "battery_pack": null}, {"number": "47107", "bike_type": 15, "lock_types": ["fork_lock"], "active": true, "state": "ok", "electric_lock": true, "boardcomputer": 26314, "pedelec_battery": null, "battery_pack": null}, {"number": "46977", "bike_type": 150, "lock_types": ["frame_lock"], "active": true, "state": "ok", "electric_lock": true, "boardcomputer": 7551125730, "pedelec_battery": null, "battery_pack": null}, {"number": "46970", "bike_type": 150, "lock_types": ["frame_lock"], "active": true, "state": "ok", "electric_lock": true, "boardcomputer": 7551088914, "pedelec_battery": null, "battery_pack": null}, {"number": "46885", "bike_type": 150, "lock_types": ["frame_lock"], "active": true, "state": "ok", "electric_lock": true, "boardcomputer": 7551114100, "pedelec_battery": null, "battery_pack": null}, {"number": "46877", "bike_type": 150, "lock_types": ["frame_lock"], "active": true, "state": "ok", "electric_lock": true, "boardcomputer": 7551108708, "pedelec_battery": null, "battery_pack": null}, {"number": "46860", "bike_type": 150, "lock_types": ["frame_lock"], "active": true, "state": "ok", "electric_lock": true, "boardcomputer": 7551070737, "pedelec_battery": null, "battery_pack": null}, {"number": "46812", "bike_type": 150, "lock_types": ["frame_lock"], "active": true, "state": "ok", "electric_lock": true, "boardcomputer": 7551089213, "pedelec_battery": null, "battery_pack": null}, {"number": "46809", "bike_type": 150, "lock_types": ["frame_lock"], "active": true, "state": "ok", "electric_lock": true, "boardcomputer": 7551088753, "pedelec_battery": null, "battery_pack": null}, {"number": "46721", "bike_type": 150, "lock_types": ["frame_lock"], "active": true, "state": "ok", "electric_lock": true, "boardcomputer": 7551088658, "pedelec_battery": null, "battery_pack": null}, {"number": "46700", "bike_type": 150, "lock_types": ["frame_lock"], "active": true, "state": "ok", "electric_lock": true, "boardcomputer": 7551094014, "pedelec_battery": null, "battery_pack": null}, {"number": "46677", "bike_type": 150, "lock_types": ["frame_lock"], "active": true, "state": "ok", "electric_lock": true, "boardcomputer": 7551133641, "pedelec_battery": null, "battery_pack": null}, {"number": "46666", "bike_type": 150, "lock_types": ["frame_lock"], "active": true, "state": "ok", "electric_lock": true, "boardcomputer": 7551084422, "pedelec_battery": null, "battery_pack": null}, {"number": "46633", "bike_type": 150, "lock_types": ["frame_lock"], "active": true, "state": "ok", "electric_lock": true, "boardcomputer": 7551088688, "pedelec_battery": null, "battery_pack": null}, {"number": "46622", "bike_type": 150, "lock_types": ["frame_lock"], "active": true, "state": "ok", "electric_lock": true, "boardcomputer": 7551088346, "pedelec_battery": null, "battery_pack": null}, {"number": "46595", "bike_type": 150, "lock_types": ["frame_lock"], "active": true, "state": "ok", "electric_lock": true, "boardcomputer": 7551088691, "pedelec_battery": null, "battery_pack": null}, {"number": "46581", "bike_type": 150, "lock_types": ["frame_lock"], "active": true, "state": "ok", "electric_lock": true, "boardcomputer": 7551088548, "pedelec_battery": null, "battery_pack": null}, {"number": "46553", "bike_type": 150, "lock_types": ["frame_lock"], "active": true, "state": "ok", "electric_lock": true, "boardcomputer": 7551088828, "pedelec_battery": null, "battery_pack": null}, {"number": "46550", "bike_type": 150, "lock_types": ["frame_lock"], "active": true, "state": "ok", "electric_lock": true, "boardcomputer": 7551088835, "pedelec_battery": null, "battery_pack": null}, {"number": "46546", "bike_type": 150, "lock_types": ["frame_lock"], "active": true, "state": "ok", "electric_lock": true, "boardcomputer": 7551088348, "pedelec_battery": null, "battery_pack": null}, {"number": "46465", "bike_type": 150, "lock_types": ["frame_lock"], "active": true, "state": "ok", "electric_lock": true, "boardcomputer": 7551086575, "pedelec_battery": null, "battery_pack": null}, {"number": "829081", "bike_type": 15, "lock_types": ["fork_lock"], "active": true, "state": "ok", "electric_lock": true, "boardcomputer": 26520, "pedelec_battery": null, "battery_pack": null}], "bike_numbers": ["47365", "47319", "47107", "46977", "46970", "46885", "46877", "46860", "46812", "46809", "46721", "46700", "46677", "46666", "46633", "46622", "46595", "46581", "46553", "46550", "46546", "46465", "829081"], "bike_types": {"15": 4, "150": 19}, "place_type": "0", "rack_locks": false}, {"uid": 55599921, "lat": 55.84425, "lng": -4.176167, "bike": false, "name": "Tollcross International Swimming Centre", "address": null, "spot": true, "number": 8200, "booked_bikes": 0, "bikes": 9, "bikes_available_to_rent": 9, "bike_racks": 6, "free_racks": 0, "special_racks": 0, "free_special_racks": 0, "maintenance": false, "terminal_type": "smart_sign", "bike_list": [{"number": "47132", "bike_type": 15, "lock_types": ["fork_lock"], "active": true, "state": "ok", "electric_lock": true, "boardcomputer": 21613, "pedelec_battery": null, "battery_pack": null}, {"number": "47652", "bike_type": 143, "lock_types": ["frame_lock"], "active": true, "state": "ok", "electric_lock": true, "boardcomputer": 7551114024, "pedelec_battery": null, "battery_pack": null}, {"number": "825599", "bike_type": 143, "lock_types": ["frame_lock"], "active": true, "state": "ok", "electric_lock": true, "boardcomputer": 7551116696, "pedelec_battery": null, "battery_pack": null}, {"number": "47863", "bike_type": 143, "lock_types": ["frame_lock"], "active": true, "state": "ok", "electric_lock": true, "boardcomputer": 7551116367, "pedelec_battery": 0, "battery_pack": {"percentage": 0}}, {"number": "46999", "bike_type": 150, "lock_types": ["frame_lock"], "active": true, "state": "ok", "electric_lock": true, "boardcomputer": 7551068725, "pedelec_battery": null, "battery_pack": null}, {"number": "46843", "bike_type": 150, "lock_types": ["frame_lock"], "active": true, "state": "ok", "electric_lock": true, "boardcomputer": 7551089212, "pedelec_battery": null, "battery_pack": null}, {"number": "46614", "bike_type": 150, "lock_types": ["frame_lock"], "active": true, "state": "ok", "electric_lock": true, "boardcomputer": 7551088600, "pedelec_battery": null, "battery_pack": null}, {"number": "46558", "bike_type": 150, "lock_types": ["frame_lock"], "active": true, "state": "ok", "electric_lock": true, "boardcomputer": 7551088299, "pedelec_battery": null, "battery_pack": null}, {"number": "46530", "bike_type": 150, "lock_types": ["frame_lock"], "active": true, "state": "ok", "electric_lock": true, "boardcomputer": 7551084545, "pedelec_battery": null, "battery_pack": null}], "bike_numbers": ["47132", "47652", "825599", "47863", "46999", "46843", "46614", "46558", "46530"], "bike_types": {"15": 1, "143": 3, "150": 5}, "place_type": "0", "rack_locks": false}, {"uid": 55600054, "lat": 55.849072, "lng": -4.314376, "bike": false, "name": "Bellahouston Park", "address": null, "spot": true, "number": 8201, "booked_bikes": 0, "bikes": 0, "bikes_available_to_rent": 0, "bike_racks": 6, "free_racks": 6, "special_racks": 0, "free_special_racks": 0, "maintenance": false, "terminal_type": "smart_sign", "bike_list": [], "bike_numbers": [], "bike_types": {}, "place_type": "0", "rack_locks": false}, {"uid": 55600156, "lat": 55.829914, "lng": -4.306877, "bike": false, "name": "Burrell Collection", "address": null, "spot": true, "number": 8202, "booked_bikes": 0, "bikes": 5, "bikes_available_to_rent": 5, "bike_racks": 6, "free_racks": 1, "special_racks": 0, "free_special_racks": 0, "maintenance": false, "terminal_type": "smart_sign", "bike_list": [{"number": "47131", "bike_type": 15, "lock_types": ["fork_lock"], "active": true, "state": "ok", "electric_lock": true, "boardcomputer": 29904, "pedelec_battery": null, "battery_pack": null}, {"number": "47064", "bike_type": 15, "lock_types": ["fork_lock"], "active": true, "state": "ok", "electric_lock": true, "boardcomputer": 28620, "pedelec_battery": null, "battery_pack": null}, {"number": "47590", "bike_type": 15, "lock_types": ["fork_lock"], "active": true, "state": "ok", "electric_lock": true, "boardcomputer": 22268, "pedelec_battery": null, "battery_pack": null}, {"number": "46982", "bike_type": 150, "lock_types": ["frame_lock"], "active": true, "state": "ok", "electric_lock": true, "boardcomputer": 7551135586, "pedelec_battery": null, "battery_pack": null}, {"number": "46659", "bike_type": 150, "lock_types": ["frame_lock"], "active": true, "state": "ok", "electric_lock": true, "boardcomputer": 7551114201, "pedelec_battery": null, "battery_pack": null}], "bike_numbers": ["47131", "47064", "47590", "46982", "46659"], "bike_types": {"15": 3, "150": 2}, "place_type": "0", "rack_locks": true}, {"uid": 55600284, "lat": 55.874555, "lng": -4.333357, "bike": false, "name": "Whiteinch Library", "address": null, "spot": true, "number": 8203, "booked_bikes": 0, "bikes": 9, "bikes_available_to_rent": 9, "bike_racks": 6, "free_racks": 0, "special_racks": 0, "free_special_racks": 0, "maintenance": false, "terminal_type": "smart_sign", "bike_list": [{"number": "47095", "bike_type": 15, "lock_types": ["fork_lock"], "active": true, "state": "ok", "electric_lock": true, "boardcomputer": 21028, "pedelec_battery": null, "battery_pack": null}, {"number": "81178", "bike_type": 15, "lock_types": ["fork_lock"], "active": true, "state": "ok", "electric_lock": true, "boardcomputer": 28857, "pedelec_battery": null, "battery_pack": null}, {"number": "47599", "bike_type": 15, "lock_types": ["fork_lock"], "active": true, "state": "ok", "electric_lock": true, "boardcomputer": 28355, "pedelec_battery": null, "battery_pack": null}, {"number": "825582", "bike_type": 143, "lock_types": ["frame_lock"], "active": true, "state": "ok", "electric_lock": true, "boardcomputer": 7551059509, "pedelec_battery": 97, "battery_pack": {"percentage": 97}}, {"number": "825607", "bike_type": 143, "lock_types": ["frame_lock"], "active": true, "state": "ok", "electric_lock": true, "boardcomputer": 7551063610, "pedelec_battery": null, "battery_pack": null}, {"number": "47886", "bike_type": 143, "lock_types": ["frame_lock"], "active": true, "state": "ok", "electric_lock": true, "boardcomputer": 7551114108, "pedelec_battery": 0, "battery_pack": {"percentage": 0}}, {"number": "46806", "bike_type": 150, "lock_types": ["frame_lock"], "active": true, "state": "ok", "electric_lock": true, "boardcomputer": 7551133857, "pedelec_battery": null, "battery_pack": null}, {"number": "46506", "bike_type": 150, "lock_types": ["frame_lock"], "active": true, "state": "ok", "electric_lock": true, "boardcomputer": 7551094758, "pedelec_battery": null, "battery_pack": null}, {"number": "47926", "bike_type": 150, "lock_types": ["frame_lock"], "active": true, "state": "ok", "electric_lock": true, "boardcomputer": 7551113844, "pedelec_battery": null, "battery_pack": null}], "bike_numbers": ["47095", "81178", "47599", "825582", "825607", "47886", "46806", "46506", "47926"], "bike_types": {"15": 3, "143": 3, "150": 3}, "place_type": "0", "rack_locks": false}, {"uid": 55600387, "lat": 55.848885, "lng": -4.20064, "bike": false, "name": "Springfield Rd", "address": null, "spot": true, "number": 8204, "booked_bikes": 0, "bikes": 8, "bikes_available_to_rent": 8, "bike_racks": 6, "free_racks": 0, "special_racks": 0, "free_special_racks": 0, "maintenance": false, "terminal_type": "smart_sign", "bike_list": [{"number": "47231", "bike_type": 15, "lock_types": ["fork_lock"], "active": true, "state": "ok", "electric_lock": true, "boardcomputer": 25817, "pedelec_battery": null, "battery_pack": null}, {"number": "47799", "bike_type": 15, "lock_types": ["fork_lock"], "active": true, "state": "ok", "electric_lock": true, "boardcomputer": 30009, "pedelec_battery": null, "battery_pack": null}, {"number": "47881", "bike_type": 143, "lock_types": ["frame_lock"], "active": true, "state": "ok", "electric_lock": true, "boardcomputer": 7551114047, "pedelec_battery": 24, "battery_pack": {"percentage": 24}}, {"number": "46708", "bike_type": 150, "lock_types": ["frame_lock"], "active": true, "state": "ok", "electric_lock": true, "boardcomputer": 7551132467, "pedelec_battery": null, "battery_pack": null}, {"number": "46470", "bike_type": 150, "lock_types": ["frame_lock"], "active": true, "state": "ok", "electric_lock": true, "boardcomputer": 7551125338, "pedelec_battery": null, "battery_pack": null}, {"number": "47953", "bike_type": 143, "lock_types": ["frame_lock"], "active": true, "state": "ok", "electric_lock": true, "boardcomputer": 7551108482, "pedelec_battery": 97, "battery_pack": {"percentage": 97}}, {"number": "47951", "bike_type": 143, "lock_types": ["frame_lock"], "active": true, "state": "ok", "electric_lock": true, "boardcomputer": 7551116618, "pedelec_battery": 71, "battery_pack": {"percentage": 71}}, {"number": "47942", "bike_type": 143, "lock_types": ["frame_lock"], "active": true, "state": "ok", "electric_lock": true, "boardcomputer": 7551107980, "pedelec_battery": null, "battery_pack": null}], "bike_numbers": ["47231", "47799", "47881", "46708", "46470", "47953", "47951", "47942"], "bike_types": {"15": 2, "143": 4, "150": 2}, "place_type": "0", "rack_locks": false}, {"uid": 55600478, "lat": 55.86698, "lng": -4.278874, "bike": false, "name": "Clifton St / Kelvingrove Park East", "address": null, "spot": true, "number": 8205, "booked_bikes": 0, "bikes": 4, "bikes_available_to_rent": 4, "bike_racks": 6, "free_racks": 2, "special_racks": 0, "free_special_racks": 0, "maintenance": false, "terminal_type": "smart_sign", "bike_list": [{"number": "47359", "bike_type": 15, "lock_types": ["fork_lock"], "active": true, "state": "ok", "electric_lock": true, "boardcomputer": 23280, "pedelec_battery": null, "battery_pack": null}, {"number": "47219", "bike_type": 15, "lock_types": ["fork_lock"], "active": true, "state": "ok", "electric_lock": true, "boardcomputer": 20558, "pedelec_battery": null, "battery_pack": null}, {"number": "825653", "bike_type": 143, "lock_types": ["frame_lock"], "active": true, "state": "ok", "electric_lock": true, "boardcomputer": 7551143664, "pedelec_battery": 53, "battery_pack": {"percentage": 53}}, {"number": "46801", "bike_type": 150, "lock_types": ["frame_lock"], "active": true, "state": "ok", "electric_lock": true, "boardcomputer": 7551087875, "pedelec_battery": null, "battery_pack": null}], "bike_numbers": ["47359", "47219", "825653", "46801"], "bike_types": {"15": 2, "143": 1, "150": 1}, "place_type": "0", "rack_locks": false}, {"uid": 66595311, "lat": 55.864135, "lng": -4.292988, "bike": false, "name": "Yorkhill Street South", "address": null, "spot": true, "number": 8310, "booked_bikes": 0, "bikes": 19, "bikes_available_to_rent": 19, "bike_racks": 8, "free_racks": 0, "special_racks": 0, "free_special_racks": 0, "maintenance": true, "terminal_type": "smart_sign", "bike_list": [{"number": "82203", "bike_type": 15, "lock_types": ["fork_lock"], "active": true, "state": "ok", "electric_lock": true, "boardcomputer": 27305, "pedelec_battery": null, "battery_pack": null}, {"number": "47441", "bike_type": 15, "lock_types": ["fork_lock"], "active": true, "state": "ok", "electric_lock": true, "boardcomputer": 30040, "pedelec_battery": null, "battery_pack": null}, {"number": "46969", "bike_type": 150, "lock_types": ["frame_lock"], "active": true, "state": "ok", "electric_lock": true, "boardcomputer": 7551114051, "pedelec_battery": null, "battery_pack": null}, {"number": "46903", "bike_type": 150, "lock_types": ["frame_lock"], "active": true, "state": "ok", "electric_lock": true, "boardcomputer": 7551125165, "pedelec_battery": null, "battery_pack": null}, {"number": "46876", "bike_type": 150, "lock_types": ["frame_lock"], "active": true, "state": "ok", "electric_lock": true, "boardcomputer": 7551116336, "pedelec_battery": null, "battery_pack": null}, {"number": "46866", "bike_type": 150, "lock_types": ["frame_lock"], "active": true, "state": "ok", "electric_lock": true, "boardcomputer": 7551131459, "pedelec_battery": null, "battery_pack": null}, {"number": "46706", "bike_type": 150, "lock_types": ["frame_lock"], "active": true, "state": "ok", "electric_lock": true, "boardcomputer": 7551084521, "pedelec_battery": null, "battery_pack": null}, {"number": "46635", "bike_type": 150, "lock_types": ["frame_lock"], "active": true, "state": "ok", "electric_lock": true, "boardcomputer": 7551088559, "pedelec_battery": null, "battery_pack": null}, {"number": "46629", "bike_type": 150, "lock_types": ["frame_lock"], "active": true, "state": "ok", "electric_lock": true, "boardcomputer": 7551088569, "pedelec_battery": null, "battery_pack": null}, {"number": "46612", "bike_type": 150, "lock_types": ["frame_lock"], "active": true, "state": "ok", "electric_lock": true, "boardcomputer": 7551088242, "pedelec_battery": null, "battery_pack": null}, {"number": "46578", "bike_type": 150, "lock_types": ["frame_lock"], "active": true, "state": "ok", "electric_lock": true, "boardcomputer": 7551134341, "pedelec_battery": null, "battery_pack": null}, {"number": "46481", "bike_type": 150, "lock_types": ["frame_lock"], "active": true, "state": "ok", "electric_lock": true, "boardcomputer": 7551088378, "pedelec_battery": null, "battery_pack": null}, {"number": "46471", "bike_type": 150, "lock_types": ["frame_lock"], "active": true, "state": "ok", "electric_lock": true, "boardcomputer": 7551094169, "pedelec_battery": null, "battery_pack": null}, {"number": "46462", "bike_type": 150, "lock_types": ["frame_lock"], "active": true, "state": "ok", "electric_lock": true, "boardcomputer": 7551094780, "pedelec_battery": null, "battery_pack": null}, {"number": "46453", "bike_type": 150, "lock_types": ["frame_lock"], "active": true, "state": "ok", "electric_lock": true, "boardcomputer": 7551094774, "pedelec_battery": null, "battery_pack": null}, {"number": "46425", "bike_type": 150, "lock_types": ["frame_lock"], "active": true, "state": "ok", "electric_lock": true, "boardcomputer": 7551085647, "pedelec_battery": null, "battery_pack": null}, {"number": "47920", "bike_type": 150, "lock_types": ["frame_lock"], "active": true, "state": "ok", "electric_lock": true, "boardcomputer": 7551088851, "pedelec_battery": null, "battery_pack": null}, {"number": "47919", "bike_type": 150, "lock_types": ["frame_lock"], "active": true, "state": "ok", "electric_lock": true, "boardcomputer": 7551132315, "pedelec_battery": null, "battery_pack": null}, {"number": "829096", "bike_type": 15, "lock_types": ["fork_lock"], "active": true, "state": "ok", "electric_lock": true, "boardcomputer": 29936, "pedelec_battery": null, "battery_pack": null}], "bike_numbers": ["82203", "47441", "46969", "46903", "46876", "46866", "46706", "46635", "46629", "46612", "46578", "46481", "46471", "46462", "46453", "46425", "47920", "47919", "829096"], "bike_types": {"15": 3, "150": 16}, "place_type": "0", "rack_locks": false}, {"uid": 105741829, "lat": 55.875431, "lng": -4.342325, "bike": false, "name": "Scotstoun South", "address": null, "spot": true, "number": 8311, "booked_bikes": 0, "bikes": 11, "bikes_available_to_rent": 11, "bike_racks": 6, "free_racks": 0, "special_racks": 0, "free_special_racks": 0, "maintenance": false, "terminal_type": "smart_sign", "bike_list": [{"number": "47148", "bike_type": 15, "lock_types": ["fork_lock"], "active": true, "state": "ok", "electric_lock": true, "boardcomputer": 21869, "pedelec_battery": null, "battery_pack": null}, {"number": "47884", "bike_type": 143, "lock_types": ["frame_lock"], "active": true, "state": "ok", "electric_lock": true, "boardcomputer": 7551126990, "pedelec_battery": 0, "battery_pack": {"percentage": 0}}, {"number": "840027", "bike_type": 182, "lock_types": ["frame_lock"], "active": true, "state": "ok", "electric_lock": true, "boardcomputer": 7551126883, "pedelec_battery": 0, "battery_pack": {"percentage": 0}}, {"number": "46992", "bike_type": 150, "lock_types": ["frame_lock"], "active": true, "state": "ok", "electric_lock": true, "boardcomputer": 7551070712, "pedelec_battery": null, "battery_pack": null}, {"number": "46838", "bike_type": 150, "lock_types": ["frame_lock"], "active": true, "state": "ok", "electric_lock": true, "boardcomputer": 7551123848, "pedelec_battery": null, "battery_pack": null}, {"number": "46764", "bike_type": 150, "lock_types": ["frame_lock"], "active": true, "state": "ok", "electric_lock": true, "boardcomputer": 7551087876, "pedelec_battery": null, "battery_pack": null}, {"number": "46744", "bike_type": 150, "lock_types": ["frame_lock"], "active": true, "state": "ok", "electric_lock": true, "boardcomputer": 7551084641, "pedelec_battery": null, "battery_pack": null}, {"number": "46603", "bike_type": 150, "lock_types": ["frame_lock"], "active": true, "state": "ok", "electric_lock": true, "boardcomputer": 7551088245, "pedelec_battery": null, "battery_pack": null}, {"number": "46590", "bike_type": 150, "lock_types": ["frame_lock"], "active": true, "state": "ok", "electric_lock": true, "boardcomputer": 7551084607, "pedelec_battery": null, "battery_pack": null}, {"number": "46463", "bike_type": 150, "lock_types": ["frame_lock"], "active": true, "state": "ok", "electric_lock": true, "boardcomputer": 7551094779, "pedelec_battery": null, "battery_pack": null}, {"number": "829008", "bike_type": 15, "lock_types": ["fork_lock"], "active": true, "state": "ok", "electric_lock": true, "boardcomputer": 39374, "pedelec_battery": null, "battery_pack": null}], "bike_numbers": ["47148", "47884", "840027", "46992", "46838", "46764", "46744", "46603", "46590", "46463", "829008"], "bike_types": {"15": 2, "143": 1, "150": 7, "182": 1}, "place_type": "0", "rack_locks": false}, {"uid": 105741985, "lat": 55.859996, "lng": -4.270163, "bike": false, "name": "Anderston Railway Station", "address": null, "spot": true, "number": 8312, "booked_bikes": 0, "bikes": 2, "bikes_available_to_rent": 2, "bike_racks": 6, "free_racks": 3, "special_racks": 0, "free_special_racks": 0, "maintenance": false, "terminal_type": "smart_sign", "bike_list": [{"number": "46710", "bike_type": 150, "lock_types": ["frame_lock"], "active": true, "state": "ok", "electric_lock": true, "boardcomputer": 7551087322, "pedelec_battery": null, "battery_pack": null}, {"number": "829097", "bike_type": 15, "lock_types": ["fork_lock"], "active": true, "state": "ok", "electric_lock": true, "boardcomputer": 27993, "pedelec_battery": null, "battery_pack": null}], "bike_numbers": ["46710", "829097"], "bike_types": {"15": 1, "150": 1}, "place_type": "0", "rack_locks": false}, {"uid": 105742063, "lat": 55.890389, "lng": -4.216525, "bike": false, "name": "Stobhill Hospital", "address": null, "spot": true, "number": 8313, "booked_bikes": 0, "bikes": 3, "bikes_available_to_rent": 3, "bike_racks": 6, "free_racks": 3, "special_racks": 0, "free_special_racks": 0, "maintenance": false, "terminal_type": "smart_sign", "bike_list": [{"number": "46925", "bike_type": 150, "lock_types": ["frame_lock"], "active": true, "state": "ok", "electric_lock": true, "boardcomputer": 7551116029, "pedelec_battery": null, "battery_pack": null}, {"number": "46703", "bike_type": 150, "lock_types": ["frame_lock"], "active": true, "state": "ok", "electric_lock": true, "boardcomputer": 7551094024, "pedelec_battery": null, "battery_pack": null}, {"number": "46417", "bike_type": 150, "lock_types": ["frame_lock"], "active": true, "state": "ok", "electric_lock": true, "boardcomputer": 7551094905, "pedelec_battery": null, "battery_pack": null}], "bike_numbers": ["46925", "46703", "46417"], "bike_types": {"150": 3}, "place_type": "0", "rack_locks": false}, {"uid": 105742172, "lat": 55.870857, "lng": -4.300665, "bike": false, "name": "Kelvin Hall Subway Station", "address": null, "spot": true, "number": 8314, "booked_bikes": 0, "bikes": 10, "bikes_available_to_rent": 10, "bike_racks": 6, "free_racks": 0, "special_racks": 0, "free_special_racks": 0, "maintenance": false, "terminal_type": "smart_sign", "bike_list": [{"number": "47489", "bike_type": 15, "lock_types": ["fork_lock"], "active": true, "state": "ok", "electric_lock": true, "boardcomputer": 26288, "pedelec_battery": null, "battery_pack": null}, {"number": "47307", "bike_type": 15, "lock_types": ["fork_lock"], "active": true, "state": "ok", "electric_lock": true, "boardcomputer": 27235, "pedelec_battery": null, "battery_pack": null}, {"number": "47176", "bike_type": 15, "lock_types": ["fork_lock"], "active": true, "state": "ok", "electric_lock": true, "boardcomputer": 29178, "pedelec_battery": null, "battery_pack": null}, {"number": "47098", "bike_type": 15, "lock_types": ["fork_lock"], "active": true, "state": "ok", "electric_lock": true, "boardcomputer": 28500, "pedelec_battery": null, "battery_pack": null}, {"number": "47530", "bike_type": 15, "lock_types": ["fork_lock"], "active": true, "state": "ok", "electric_lock": true, "boardcomputer": 29012, "pedelec_battery": null, "battery_pack": null}, {"number": "46930", "bike_type": 150, "lock_types": ["frame_lock"], "active": true, "state": "ok", "electric_lock": true, "boardcomputer": 7551071944, "pedelec_battery": null, "battery_pack": null}, {"number": "46615", "bike_type": 150, "lock_types": ["frame_lock"], "active": true, "state": "ok", "electric_lock": true, "boardcomputer": 7551088555, "pedelec_battery": null, "battery_pack": null}, {"number": "46518", "bike_type": 150, "lock_types": ["frame_lock"], "active": true, "state": "ok", "electric_lock": true, "boardcomputer": 7551089156, "pedelec_battery": null, "battery_pack": null}, {"number": "47929", "bike_type": 150, "lock_types": ["frame_lock"], "active": true, "state": "ok", "electric_lock": true, "boardcomputer": 7551088588, "pedelec_battery": null, "battery_pack": null}, {"number": "829088", "bike_type": 15, "lock_types": ["fork_lock"], "active": true, "state": "ok", "electric_lock": true, "boardcomputer": 20609, "pedelec_battery": null, "battery_pack": null}], "bike_numbers": ["47489", "47307", "47176", "47098", "47530", "46930", "46615", "46518", "47929", "829088"], "bike_types": {"15": 6, "150": 4}, "place_type": "0", "rack_locks": false}, {"uid": 105742240, "lat": 55.840988, "lng": -4.289947, "bike": false, "name": "St Andrews Drive - Dalziel Drive", "address": null, "spot": true, "number": 8315, "booked_bikes": 0, "bikes": 5, "bikes_available_to_rent": 5, "bike_racks": 6, "free_racks": 1, "special_racks": 0, "free_special_racks": 0, "maintenance": false, "terminal_type": "smart_sign", "bike_list": [{"number": "46926", "bike_type": 150, "lock_types": ["frame_lock"], "active": true, "state": "ok", "electric_lock": true, "boardcomputer": 7551070220, "pedelec_battery": null, "battery_pack": null}, {"number": "46770", "bike_type": 150, "lock_types": ["frame_lock"], "active": true, "state": "ok", "electric_lock": true, "boardcomputer": 7551089882, "pedelec_battery": null, "battery_pack": null}, {"number": "46746", "bike_type": 150, "lock_types": ["frame_lock"], "active": true, "state": "ok", "electric_lock": true, "boardcomputer": 7551116096, "pedelec_battery": null, "battery_pack": null}, {"number": "46517", "bike_type": 150, "lock_types": ["frame_lock"], "active": true, "state": "ok", "electric_lock": true, "boardcomputer": 7551088987, "pedelec_battery": null, "battery_pack": null}, {"number": "46414", "bike_type": 150, "lock_types": ["frame_lock"], "active": true, "state": "ok", "electric_lock": true, "boardcomputer": 7551092950, "pedelec_battery": null, "battery_pack": null}], "bike_numbers": ["46926", "46770", "46746", "46517", "46414"], "bike_types": {"150": 5}, "place_type": "0", "rack_locks": false}, {"uid": 105742309, "lat": 55.827974, "lng": -4.247278, "bike": false, "name": "Hampden Park and Ride", "address": null, "spot": true, "number": 8316, "booked_bikes": 0, "bikes": 9, "bikes_available_to_rent": 9, "bike_racks": 6, "free_racks": 0, "special_racks": 0, "free_special_racks": 0, "maintenance": false, "terminal_type": "smart_sign", "bike_list": [{"number": "47357", "bike_type": 15, "lock_types": ["fork_lock"], "active": true, "state": "ok", "electric_lock": true, "boardcomputer": 27661, "pedelec_battery": null, "battery_pack": null}, {"number": "46904", "bike_type": 150, "lock_types": ["frame_lock"], "active": true, "state": "ok", "electric_lock": true, "boardcomputer": 7551068874, "pedelec_battery": null, "battery_pack": null}, {"number": "46846", "bike_type": 150, "lock_types": ["frame_lock"], "active": true, "state": "ok", "electric_lock": true, "boardcomputer": 7551089903, "pedelec_battery": null, "battery_pack": null}, {"number": "46729", "bike_type": 150, "lock_types": ["frame_lock"], "active": true, "state": "ok", "electric_lock": true, "boardcomputer": 7551088342, "pedelec_battery": null, "battery_pack": null}, {"number": "46649", "bike_type": 150, "lock_types": ["frame_lock"], "active": true, "state": "ok", "electric_lock": true, "boardcomputer": 7551088584, "pedelec_battery": null, "battery_pack": null}, {"number": "46611", "bike_type": 150, "lock_types": ["frame_lock"], "active": true, "state": "ok", "electric_lock": true, "boardcomputer": 7551088651, "pedelec_battery": null, "battery_pack": null}, {"number": "46492", "bike_type": 150, "lock_types": ["frame_lock"], "active": true, "state": "ok", "electric_lock": true, "boardcomputer": 7551088614, "pedelec_battery": null, "battery_pack": null}, {"number": "47978", "bike_type": 143, "lock_types": ["frame_lock"], "active": true, "state": "ok", "electric_lock": true, "boardcomputer": 7551108633, "pedelec_battery": 37, "battery_pack": {"percentage": 37}}, {"number": "829006", "bike_type": 15, "lock_types": ["fork_lock"], "active": true, "state": "ok", "electric_lock": true, "boardcomputer": 27998, "pedelec_battery": null, "battery_pack": null}], "bike_numbers": ["47357", "46904", "46846", "46729", "46649", "46611", "46492", "47978", "829006"], "bike_types": {"15": 2, "143": 1, "150": 6}, "place_type": "0", "rack_locks": false}, {"uid": 114446999, "lat": 55.837175, "lng": -4.170209, "bike": false, "name": "Fullarton", "address": "236 Hamilton Road, Glasgow", "spot": true, "number": 8234, "booked_bikes": 0, "bikes": 5, "bikes_available_to_rent": 5, "bike_racks": 0, "free_racks": 0, "special_racks": 0, "free_special_racks": 0, "maintenance": false, "terminal_type": "smart_sign", "bike_list": [{"number": "47377", "bike_type": 15, "lock_types": ["fork_lock"], "active": true, "state": "ok", "electric_lock": true, "boardcomputer": 21827, "pedelec_battery": null, "battery_pack": null}, {"number": "47118", "bike_type": 15, "lock_types": ["fork_lock"], "active": true, "state": "ok", "electric_lock": true, "boardcomputer": 21206, "pedelec_battery": null, "battery_pack": null}, {"number": "47892", "bike_type": 143, "lock_types": ["frame_lock"], "active": true, "state": "ok", "electric_lock": true, "boardcomputer": 7551072862, "pedelec_battery": null, "battery_pack": null}, {"number": "46971", "bike_type": 150, "lock_types": ["frame_lock"], "active": true, "state": "ok", "electric_lock": true, "boardcomputer": 7551131687, "pedelec_battery": null, "battery_pack": null}, {"number": "47911", "bike_type": 150, "lock_types": ["frame_lock"], "active": true, "state": "ok", "electric_lock": true, "boardcomputer": 7551087255, "pedelec_battery": null, "battery_pack": null}], "bike_numbers": ["47377", "47118", "47892", "46971", "47911"], "bike_types": {"15": 2, "143": 1, "150": 2}, "place_type": "0", "rack_locks": false}, {"uid": 115737132, "lat": 55.846552, "lng": -4.332797, "bike": false, "name": "Maryland Drive", "address": null, "spot": true, "number": 8209, "booked_bikes": 0, "bikes": 8, "bikes_available_to_rent": 8, "bike_racks": 10, "free_racks": 2, "special_racks": 0, "free_special_racks": 0, "maintenance": false, "terminal_type": "smart_sign", "bike_list": [{"number": "47190", "bike_type": 15, "lock_types": ["fork_lock"], "active": true, "state": "ok", "electric_lock": true, "boardcomputer": 29517, "pedelec_battery": null, "battery_pack": null}, {"number": "81101", "bike_type": 15, "lock_types": ["fork_lock"], "active": true, "state": "ok", "electric_lock": true, "boardcomputer": 26694, "pedelec_battery": null, "battery_pack": null}, {"number": "46844", "bike_type": 150, "lock_types": ["frame_lock"], "active": true, "state": "ok", "electric_lock": true, "boardcomputer": 7551089160, "pedelec_battery": null, "battery_pack": null}, {"number": "46777", "bike_type": 150, "lock_types": ["frame_lock"], "active": true, "state": "ok", "electric_lock": true, "boardcomputer": 7551132956, "pedelec_battery": null, "battery_pack": null}, {"number": "46757", "bike_type": 150, "lock_types": ["frame_lock"], "active": true, "state": "ok", "electric_lock": true, "boardcomputer": 7551089913, "pedelec_battery": null, "battery_pack": null}, {"number": "46674", "bike_type": 150, "lock_types": ["frame_lock"], "active": true, "state": "ok", "electric_lock": true, "boardcomputer": 7551088446, "pedelec_battery": null, "battery_pack": null}, {"number": "46601", "bike_type": 150, "lock_types": ["frame_lock"], "active": true, "state": "ok", "electric_lock": true, "boardcomputer": 7551088527, "pedelec_battery": null, "battery_pack": null}, {"number": "46528", "bike_type": 150, "lock_types": ["frame_lock"], "active": true, "state": "ok", "electric_lock": true, "boardcomputer": 7551123855, "pedelec_battery": null, "battery_pack": null}], "bike_numbers": ["47190", "81101", "46844", "46777", "46757", "46674", "46601", "46528"], "bike_types": {"15": 2, "150": 6}, "place_type": "0", "rack_locks": false}, {"uid": 145236946, "lat": 55.818368, "lng": -4.291648, "bike": true, "name": "BIKE 47260", "address": null, "spot": false, "number": 0, "booked_bikes": 0, "bikes": 1, "bikes_available_to_rent": 1, "bike_racks": 0, "free_racks": 0, "special_racks": 0, "free_special_racks": 0, "maintenance": false, "terminal_type": "", "bike_list": [{"number": "47260", "bike_type": 15, "lock_types": ["fork_lock"], "active": true, "state": "ok", "electric_lock": true, "boardcomputer": 21466, "pedelec_battery": null, "battery_pack": null}], "bike_numbers": ["47260"], "bike_types": {"15": 1}, "place_type": "12", "rack_locks": false}, {"uid": 145642203, "lat": 55.862459, "lng": -4.255998, "bike": true, "name": "BIKE 47602", "address": null, "spot": false, "number": 0, "booked_bikes": 0, "bikes": 1, "bikes_available_to_rent": 1, "bike_racks": 0, "free_racks": 0, "special_racks": 0, "free_special_racks": 0, "maintenance": false, "terminal_type": "", "bike_list": [{"number": "47602", "bike_type": 15, "lock_types": ["fork_lock"], "active": true, "state": "ok", "electric_lock": true, "boardcomputer": 22026, "pedelec_battery": null, "battery_pack": null}], "bike_numbers": ["47602"], "bike_types": {"15": 1}, "place_type": "12", "rack_locks": false}, {"uid": 145875447, "lat": 55.889457, "lng": -4.290664, "bike": true, "name": "BIKE 47262", "address": null, "spot": false, "number": 0, "booked_bikes": 0, "bikes": 1, "bikes_available_to_rent": 1, "bike_racks": 0, "free_racks": 0, "special_racks": 0, "free_special_racks": 0, "maintenance": false, "terminal_type": "", "bike_list": [{"number": "47262", "bike_type": 15, "lock_types": ["fork_lock"], "active": true, "state": "ok", "electric_lock": true, "boardcomputer": 29615, "pedelec_battery": null, "battery_pack": null}], "bike_numbers": ["47262"], "bike_types": {"15": 1}, "place_type": "12", "rack_locks": false}, {"uid": 145898289, "lat": 55.855387, "lng": -4.2751, "bike": true, "name": "recording_170050084", "address": null, "spot": false, "number": 0, "booked_bikes": 0, "bikes": 1, "bikes_available_to_rent": 1, "bike_racks": 0, "free_racks": 0, "special_racks": 0, "free_special_racks": 0, "maintenance": false, "terminal_type": "", "bike_list": [{"number": "46728", "bike_type": 150, "lock_types": ["frame_lock"], "active": true, "state": "ok", "electric_lock": true, "boardcomputer": 7551088387, "pedelec_battery": null, "battery_pack": null}], "bike_numbers": ["46728"], "bike_types": {"150": 1}, "place_type": "12", "rack_locks": false}, {"uid": 145931795, "lat": 55.860133, "lng": -4.241195, "bike": true, "name": "BIKE 81131", "address": null, "spot": false, "number": 0, "booked_bikes": 0, "bikes": 1, "bikes_available_to_rent": 1, "bike_racks": 0, "free_racks": 0, "special_racks": 0, "free_special_racks": 0, "maintenance": false, "terminal_type": "", "bike_list": [{"number": "81131", "bike_type": 15, "lock_types": ["fork_lock"], "active": true, "state": "ok", "electric_lock": true, "boardcomputer": 28860, "pedelec_battery": null, "battery_pack": null}], "bike_numbers": ["81131"], "bike_types": {"15": 1}, "place_type": "12", "rack_locks": false}, {"uid": 146046421, "lat": 55.854347, "lng": -4.232512, "bike": true, "name": "BIKE 46454", "address": null, "spot": false, "number": 0, "booked_bikes": 0, "bikes": 1, "bikes_available_to_rent": 1, "bike_racks": 0, "free_racks": 0, "special_racks": 0, "free_special_racks": 0, "maintenance": false, "terminal_type": "", "bike_list": [{"number": "46454", "bike_type": 150, "lock_types": ["frame_lock"], "active": true, "state": "ok", "electric_lock": true, "boardcomputer": 7551094763, "pedelec_battery": null, "battery_pack": null}], "bike_numbers": ["46454"], "bike_types": {"150": 1}, "place_type": "12", "rack_locks": false}, {"uid": 146063581, "lat": 55.85735, "lng": -4.217205, "bike": true, "name": "BIKE 47013", "address": null, "spot": false, "number": 0, "booked_bikes": 0, "bikes": 1, "bikes_available_to_rent": 1, "bike_racks": 0, "free_racks": 0, "special_racks": 0, "free_special_racks": 0, "maintenance": false, "terminal_type": "", "bike_list": [{"number": "47013", "bike_type": 15, "lock_types": ["fork_lock"], "active": true, "state": "ok", "electric_lock": true, "boardcomputer": 27587, "pedelec_battery": null, "battery_pack": null}], "bike_numbers": ["47013"], "bike_types": {"15": 1}, "place_type": "12", "rack_locks": false}, {"uid": 146095413, "lat": 55.851322, "lng": -4.202868, "bike": true, "name": "recording_168204334", "address": null, "spot": false, "number": 0, "booked_bikes": 0, "bikes": 1, "bikes_available_to_rent": 1, "bike_racks": 0, "free_racks": 0, "special_racks": 0, "free_special_racks": 0, "maintenance": false, "terminal_type": "", "bike_list": [{"number": "47373", "bike_type": 15, "lock_types": ["fork_lock"], "active": true, "state": "ok", "electric_lock": true, "boardcomputer": 21889, "pedelec_battery": null, "battery_pack": null}], "bike_numbers": ["47373"], "bike_types": {"15": 1}, "place_type": "12", "rack_locks": false}, {"uid": 146121127, "lat": 55.860178, "lng": -4.257313, "bike": true, "name": "BIKE 46409", "address": null, "spot": false, "number": 0, "booked_bikes": 0, "bikes": 1, "bikes_available_to_rent": 1, "bike_racks": 0, "free_racks": 0, "special_racks": 0, "free_special_racks": 0, "maintenance": false, "terminal_type": "", "bike_list": [{"number": "46409", "bike_type": 150, "lock_types": ["frame_lock"], "active": true, "state": "ok", "electric_lock": true, "boardcomputer": 7551088955, "pedelec_battery": null, "battery_pack": null}], "bike_numbers": ["46409"], "bike_types": {"150": 1}, "place_type": "12", "rack_locks": false}, {"uid": 146124234, "lat": 55.886251, "lng": -4.072709, "bike": true, "name": "BIKE 47188", "address": null, "spot": false, "number": 0, "booked_bikes": 0, "bikes": 1, "bikes_available_to_rent": 1, "bike_racks": 0, "free_racks": 0, "special_racks": 0, "free_special_racks": 0, "maintenance": false, "terminal_type": "", "bike_list": [{"number": "47188", "bike_type": 15, "lock_types": ["fork_lock"], "active": true, "state": "ok", "electric_lock": true, "boardcomputer": 21742, "pedelec_battery": null, "battery_pack": null}], "bike_numbers": ["47188"], "bike_types": {"15": 1}, "place_type": "12", "rack_locks": false}, {"uid": 146157121, "lat": 55.878405, "lng": -4.267689, "bike": true, "name": "recording_170211775", "address": null, "spot": false, "number": 0, "booked_bikes": 0, "bikes": 1, "bikes_available_to_rent": 1, "bike_racks": 0, "free_racks": 0, "special_racks": 0, "free_special_racks": 0, "maintenance": false, "terminal_type": "", "bike_list": [{"number": "47610", "bike_type": 15, "lock_types": ["fork_lock"], "active": true, "state": "ok", "electric_lock": true, "boardcomputer": 29088, "pedelec_battery": null, "battery_pack": null}], "bike_numbers": ["47610"], "bike_types": {"15": 1}, "place_type": "12", "rack_locks": false}, {"uid": 146213044, "lat": 55.882849, "lng": -4.204071, "bike": true, "name": "BIKE 46707", "address": null, "spot": false, "number": 0, "booked_bikes": 0, "bikes": 1, "bikes_available_to_rent": 1, "bike_racks": 0, "free_racks": 0, "special_racks": 0, "free_special_racks": 0, "maintenance": false, "terminal_type": "", "bike_list": [{"number": "46707", "bike_type": 150, "lock_types": ["frame_lock"], "active": true, "state": "ok", "electric_lock": true, "boardcomputer": 7551088892, "pedelec_battery": null, "battery_pack": null}], "bike_numbers": ["46707"], "bike_types": {"150": 1}, "place_type": "12", "rack_locks": false}, {"uid": 146230095, "lat": 55.861173, "lng": -4.259752, "bike": true, "name": "BIKE 46944", "address": null, "spot": false, "number": 0, "booked_bikes": 0, "bikes": 1, "bikes_available_to_rent": 1, "bike_racks": 0, "free_racks": 0, "special_racks": 0, "free_special_racks": 0, "maintenance": false, "terminal_type": "", "bike_list": [{"number": "46944", "bike_type": 150, "lock_types": ["frame_lock"], "active": true, "state": "ok", "electric_lock": true, "boardcomputer": 7551070775, "pedelec_battery": null, "battery_pack": null}], "bike_numbers": ["46944"], "bike_types": {"150": 1}, "place_type": "12", "rack_locks": false}, {"uid": 146232393, "lat": 55.8604, "lng": -4.257311, "bike": true, "name": "BIKE 46438", "address": null, "spot": false, "number": 0, "booked_bikes": 0, "bikes": 1, "bikes_available_to_rent": 1, "bike_racks": 0, "free_racks": 0, "special_racks": 0, "free_special_racks": 0, "maintenance": false, "terminal_type": "", "bike_list": [{"number": "46438", "bike_type": 150, "lock_types": ["frame_lock"], "active": true, "state": "ok", "electric_lock": true, "boardcomputer": 7551088554, "pedelec_battery": null, "battery_pack": null}], "bike_numbers": ["46438"], "bike_types": {"150": 1}, "place_type": "12", "rack_locks": false}, {"uid": 146233809, "lat": 55.86376, "lng": -4.341893, "bike": true, "name": "BIKE 46424", "address": null, "spot": false, "number": 0, "booked_bikes": 0, "bikes": 1, "bikes_available_to_rent": 1, "bike_racks": 0, "free_racks": 0, "special_racks": 0, "free_special_racks": 0, "maintenance": false, "terminal_type": "", "bike_list": [{"number": "46424", "bike_type": 150, "lock_types": ["frame_lock"], "active": true, "state": "ok", "electric_lock": true, "boardcomputer": 7551084893, "pedelec_battery": null, "battery_pack": null}], "bike_numbers": ["46424"], "bike_types": {"150": 1}, "place_type": "12", "rack_locks": false}, {"uid": 146236399, "lat": 55.860351, "lng": -4.263347, "bike": true, "name": "BIKE 46779", "address": null, "spot": false, "number": 0, "booked_bikes": 0, "bikes": 1, "bikes_available_to_rent": 1, "bike_racks": 0, "free_racks": 0, "special_racks": 0, "free_special_racks": 0, "maintenance": false, "terminal_type": "", "bike_list": [{"number": "46779", "bike_type": 150, "lock_types": ["frame_lock"], "active": true, "state": "ok", "electric_lock": true, "boardcomputer": 7551089045, "pedelec_battery": null, "battery_pack": null}], "bike_numbers": ["46779"], "bike_types": {"150": 1}, "place_type": "12", "rack_locks": false}]